store_id,store_name,store_name_english,score,review_cnt,tabelog_lunch_budget_min,tabelog_lunch_budget_max,tabelog_dinner_budget_min,tabelog_dinner_budget_max,customer_lunch_budget_min,customer_lunch_budget_max,customer_dinner_budget_min,customer_dinner_budget_max,genre,url,url_english,address,latitude,longitude,prefecture,address_english,prefecture_english,website
00000001,南インド料理 葉菜,hana,3.64,284,1000,1999,1000,1999,1000,1999,1000,1999,asia,https://tabelog.com/chiba/A1202/A120204/12012667/,https://tabelog.com/en/chiba/A1202/A120204/12012667/,千葉県八千代市勝田台1-13-32 MTビル １F,35.7145779,140.128057,千葉県,Katsutadai Yachiyo Chiba,Ciba,http://www.hana-india.com/
00000002,アルカラム,Al Karam,3.53,209,1000,1999,1000,1999,1000,1999,1000,1999,asia,https://tabelog.com/saitama/A1102/A110205/11021841/,https://tabelog.com/en/saitama/A1102/A110205/11021841/,埼玉県八潮市中央1-8-10,35.8208923,139.8383715,埼玉県,Central Yashio Saitama,Saitama,
00000003,タイ国料理レストラン コワタイ,taikokuryouriresutorankowatai,3.43,62,1000,1999,1000,1999,1000,1999,1000,1999,asia,https://tabelog.com/ibaraki/A0802/A080201/8019630/,https://tabelog.com/en/ibaraki/A0802/A080201/8019630/,茨城県つくば市南中妻826-5,36.0323956,140.1074408,茨城県,826-5 Minaminakazuma Tsukuba Ibaraki,Ibaraki,https://www.crostage.net
00000004,ヒマラヤユキノシタ,Himarayayukinoshita,3.49,107,1000,1999,1000,1999,1000,999,1000,999,asia,https://tabelog.com/chiba/A1203/A120301/12049220/,https://tabelog.com/en/chiba/A1203/A120301/12049220/,千葉県柏市旭町1-7-17 中山ビル 1F,35.8607449,139.9690066,千葉県,1-chome-7-17 Asahicho Kashiwa Chiba,Ciba,http://curryhouse-bombay.com/
00000005,湘南韓国料理GOKAN,shounanhambarugokan,3.52,145,1000,1999,5000,5999,1000,1999,5000,5999,asia,https://tabelog.com/kanagawa/A1404/A140403/14066068/,https://tabelog.com/en/kanagawa/A1404/A140403/14066068/,神奈川県藤沢市片瀬海岸1-13-12,35.3088968,139.4858252,神奈川県,1-chome-13-12 Katasekaigan Fujisawa Kanagawa,Kanagawa,
00000006,カルマ,Karuma,3.58,130,1000,1999,5000,5999,1000,1999,1000,1999,asia,https://tabelog.com/ibaraki/A0801/A080101/8000263/,https://tabelog.com/en/ibaraki/A0801/A080101/8000263/,茨城県水戸市中央2-8-10,36.3661755,140.4700121,茨城県,2 Chome-8-10 Central Mito Ibaraki,Ibaraki,
00000007,ボンベイ,BOMBAY INDIAN RESTAURANT,3.51,193,1000,999,1000,1999,1000,1999,1000,1999,asia,https://tabelog.com/kanagawa/A1408/A140802/14003773/,https://tabelog.com/en/kanagawa/A1408/A140802/14003773/,神奈川県厚木市水引1-17-17,35.4495228,139.3588304,神奈川県,Mizuhiki Atsugi Kanagawa,Kanagawa,
00000008,サンサール 本八幡店,Sansaru,3.50,159,1000,999,1000,1999,1000,1999,1000,1999,asia,https://tabelog.com/chiba/A1202/A120202/12038344/,https://tabelog.com/en/chiba/A1202/A120202/12038344/,千葉県市川市八幡2-7-11 岡ビル 2F,35.7216184,139.9284682,千葉県,2-chome-7-11 Yawata Ichikawa Chiba,Ciba,http://san-sar.info/
00000009,Spice Drunker やぶや,Spice Drunker　yabuya,3.73,76,1000,999,8000,9999,1000,1999,8000,9999,asia,https://tabelog.com/kanagawa/A1401/A140104/14082117/,https://tabelog.com/en/kanagawa/A1401/A140104/14082117/,神奈川県横浜市中区伊勢佐木町1-3-7 沼田ビル 3F,35.445128,139.6333393,神奈川県,1-chome-3-7 Isezakicho Naka Ward Yokohama Kanagawa,Kanagawa,
00000010,シナモンガーデン,CINNAMON GARDEN,3.63,316,1000,999,8000,9999,1000,1999,1000,1999,asia,https://tabelog.com/kanagawa/A1407/A140702/14055360/,https://tabelog.com/en/kanagawa/A1407/A140702/14055360/,神奈川県大和市林間2-22-19,35.4995959,139.4507909,神奈川県,2-chome-22-19 Rinkan Yamato Kanagawa,Kanagawa,https://cinnamon-garden.com/
00000011,しみず,Shimizu,3.73,126,1000,999,2000,2999,8000,9999,10000,14999,asia,https://tabelog.com/aichi/A2301/A230110/23037011/,https://tabelog.com/en/aichi/A2301/A230110/23037011/,愛知県名古屋市北区清水2丁目4-6 清水ビル１F,35.1869192,136.9136583,愛知県,2-chome-4-6 Shimizu Kita-ku Nagoya Aichi,Aichi,
00000012,ナマステキッチン,Namasutekicchin,3.29,41,1000,999,2000,2999,1000,1999,10000,14999,asia,https://tabelog.com/saitama/A1104/A110401/11037766/,https://tabelog.com/en/saitama/A1104/A110401/11037766/,埼玉県上尾市原市中3-1-1,35.9647691,139.623067,埼玉県,Haraichinaka Ageo Saitama,Saitama,
00000013,インド食堂 チャラカラ,indoshokudoucharakara,3.63,106,1000,999,2000,2999,1000,1999,1000,1999,asia,https://tabelog.com/gunma/A1001/A100101/10015770/,https://tabelog.com/en/gunma/A1001/A100101/10015770/,群馬県前橋市総社町総社2014-5 大山マンション 104,36.4042468,139.0328131,群馬県,2014-5 Sojamachi Soja Maebashi Gunma,Gunma,
00000014,サウンスンダ Hiroko,Saunsundahiroko,3.57,109,1000,1999,1000,1999,1000,1999,1000,1999,asia,https://tabelog.com/aichi/A2303/A230302/23063380/,https://tabelog.com/en/aichi/A2303/A230302/23063380/,愛知県長久手市北熊16,35.18143,137.0715716,愛知県,16 Kitaguma Nagakute Aichi,Aichi,https://www.facebook.com/saungsunda.nishijyawa/
00000015,三日月バル,Mikadukibaru,3.63,91,1000,1999,1000,1999,1000,1999,3000,3999,asia,https://tabelog.com/gifu/A2101/A210101/21013254/,https://tabelog.com/en/gifu/A2101/A210101/21013254/,岐阜県岐阜市住田町2-20,35.4111789,136.7578246,岐阜県,2-chome-20 Sumidamachi Gifu,Gifu,
00000016,カリカキッチン,Karikakicchin,3.55,71,1000,999,3000,3999,1000,1999,1000,1999,asia,https://tabelog.com/saitama/A1101/A110101/11051760/,https://tabelog.com/en/saitama/A1101/A110101/11051760/,埼玉県さいたま市大宮区桜木町4-209,35.9059888,139.61738,埼玉県,4-chome-209 Sakuragicho Ōmiya-ku Saitama,Saitama,
00000017,香膳,Kazen,3.51,91,2000,2999,4000,4999,2000,2999,3000,3999,asia,https://tabelog.com/aichi/A2301/A230114/23015025/,https://tabelog.com/en/aichi/A2301/A230114/23015025/,愛知県名古屋市守山区喜多山2-2-14,35.2053914,136.9875553,愛知県,2-chome-2-14 Kitayama Moriyama-ku Nagoya Aichi,Aichi,https://www.facebook.com/silkroad.kazen
00000018,Cao★マンガイ,Kaomangai,3.59,62,2000,2999,1000,1999,2000,2999,1000,1999,asia,https://tabelog.com/hokkaido/A0101/A010103/1052247/,https://tabelog.com/en/hokkaido/A0101/A010103/1052247/,北海道札幌市中央区南5条西4-1-3 日劇ビル 2F,43.05413009999999,141.3534679,北海道,Minami 5 Jonishi Chuo Ward Sapporo Hokkaido,Hokkaido,
00000019,きむち屋,Kimuchiya,3.47,90,1000,999,2000,2999,1000,1999,2000,2999,asia,https://tabelog.com/gunma/A1001/A100101/10014070/,https://tabelog.com/en/gunma/A1001/A100101/10014070/,群馬県前橋市元総社町2-20-10,36.3893552,139.0381875,群馬県,2-chome-20-10 Motosojamachi Maebashi Gunma,Gunma,http://mochuni.com/
00000020,ビンヤン,Binyan,3.71,236,1000,1999,2000,2999,1000,1999,1000,1999,asia,https://tabelog.com/aichi/A2301/A230105/23049561/,https://tabelog.com/en/aichi/A2301/A230105/23049561/,愛知県名古屋市中区正木4-6-10 羽衣ビル 1F,35.1432767,136.8981859,愛知県,Masaki Naka Ward Nagoya Aichi,Aichi,http://vietnam9cafe.com/
00000021,韓国家庭料理 扶餘,Kankokukateiryouripuyo,3.58,266,1000,999,3000,3999,1000,1999,3000,3999,asia,https://tabelog.com/miyagi/A0401/A040103/4002098/,https://tabelog.com/en/miyagi/A0401/A040103/4002098/,宮城県仙台市若林区新寺1-2-13 渡辺ビル　１Ｆ,38.2573259,140.8836324,宮城県,Shintera Wakabayashi Ward Sendai Miyagi,Miyagi,
00000022,印度料理シタール,Shitaru,3.77,1285,1000,1999,2000,2999,1000,1999,3000,3999,asia,https://tabelog.com/chiba/A1201/A120104/12000109/,https://tabelog.com/en/chiba/A1201/A120104/12000109/,千葉県千葉市花見川区検見川町1-106-16,35.6519304,140.0654134,千葉県,1-chome-106-16 Kemigawacho Hanamigawa-ku Chiba,Ciba,https://sitar.co.jp/
00000023,ナーガ・ラジャ,naga:raja,3.58,113,1000,1999,2000,2999,1000,1999,1000,1999,asia,https://tabelog.com/kanagawa/A1406/A140601/14003967/,https://tabelog.com/en/kanagawa/A1406/A140601/14003967/,神奈川県横須賀市久里浜4-3-15 メゾンドアヤ　１０２,35.2316049,139.7026051,神奈川県,Kurihama Yokosuka Kanagawa,Kanagawa,
00000024,インド・バングラデシュ料理 スターカリーハウス,STAR CURRY HOUSE,3.46,65,1000,1999,1000,999,1000,1999,1000,1999,asia,https://tabelog.com/saitama/A1102/A110202/11054085/,https://tabelog.com/en/saitama/A1102/A110202/11054085/,埼玉県蕨市塚越1-4-18,35.8274025,139.6917357,埼玉県,1-chome-4-18 Tsukagoshi Warabi Saitama,Saitama,
00000025,Salaam Curry,Salaam Curry,3.60,90,1000,1999,1000,999,1000,1999,1000,1999,asia,https://tabelog.com/gunma/A1002/A100202/10022154/,https://tabelog.com/en/gunma/A1002/A100202/10022154/,群馬県伊勢崎市柳原町54,36.3286141,139.1980821,群馬県,54 Yanagiharacho Isesaki Gunma,Gunma,https://salaam-curry.webnode.jp/
00000026,(食)越南,Betonamu,3.61,350,1000,1999,1000,999,1000,999,1000,1999,asia,https://tabelog.com/kanagawa/A1405/A140504/14011047/,https://tabelog.com/en/kanagawa/A1405/A140504/14011047/,神奈川県川崎市中原区上小田中3丁目27-10,35.5877605,139.6321987,神奈川県,3-chome-27-10 Kamikodanaka Nakahara-ku Kawasaki Kanagawa,Kanagawa,
00000027,ピアーズ 東浦和店,Piazu,3.47,96,1000,999,1000,1999,1000,1999,1000,1999,asia,https://tabelog.com/saitama/A1101/A110102/11028975/,https://tabelog.com/en/saitama/A1101/A110102/11028975/,埼玉県さいたま市緑区東浦和6-9-3 東浦和グルメ館 1F,35.8707619,139.7057216,埼玉県,6-chome-9-3 Higashiurawa Midori Ward Saitama,Saitama,
00000028,タージ・マハル,Taj Mahal,3.45,43,1000,999,1000,1999,1000,1999,1000,1999,asia,https://tabelog.com/ibaraki/A0802/A080201/8023792/,https://tabelog.com/en/ibaraki/A0802/A080201/8023792/,茨城県つくば市二の宮2-14-15,36.06311609999999,140.121537,茨城県,2-chome-14-15 Ninomiya Tsukuba Ibaraki,Ibaraki,
00000029,レストラン サダフ,Resutoransadafu,3.46,81,1000,999,1000,1999,1000,1999,2000,2999,asia,https://tabelog.com/chiba/A1204/A120402/12040017/,https://tabelog.com/en/chiba/A1204/A120402/12040017/,千葉県佐倉市吉見602-32,35.7084687,140.1867504,千葉県,602-32 Yoshimi Sakura Chiba,Ciba,
00000030,サティヤム,Sathiyamu,3.59,185,1000,999,1000,1999,1000,1999,2000,2999,asia,https://tabelog.com/saitama/A1101/A110102/11023701/,https://tabelog.com/en/saitama/A1101/A110102/11023701/,埼玉県さいたま市緑区道祖土1-27-10 サイドプラザ １F,35.8789739,139.6684483,埼玉県,1-chome-27-10 Saido Midori Ward Saitama,Saitama,http://satyam-s.com
00000031,テコテコ,Tekoteko,3.54,104,2000,2999,2000,2999,2000,2999,2000,2999,asia,https://tabelog.com/chiba/A1204/A120401/12002649/,https://tabelog.com/en/chiba/A1204/A120401/12002649/,千葉県成田市上町858-1,35.7802806,140.3153703,千葉県,858-1 Kamicho Narita Chiba,Ciba,http://teco-teco.jp/
00000032,ガネーシュ,Ganeshu,3.75,291,1000,1999,2000,2999,1000,1999,3000,3999,asia,https://tabelog.com/kanagawa/A1401/A140310/14012113/,https://tabelog.com/en/kanagawa/A1401/A140310/14012113/,神奈川県横浜市金沢区能見台通8-5,35.3608069,139.6281806,神奈川県,8-5 Nokendaidori Kanazawa-ku Yokohama Kanagawa,Kanagawa,http://www.ganesh.gr.jp/
00000033,ちきゅうや 本町本店,Chikyuuya,3.56,58,1000,999,2000,2999,1000,1999,1000,1999,asia,https://tabelog.com/iwate/A0301/A030101/3006055/,https://tabelog.com/en/iwate/A0301/A030101/3006055/,岩手県盛岡市本町通1-17-27 テンロードナカムラ２F,39.7058152,141.1526333,岩手県,1-chome-17-27 Honchodori Morioka Iwate,Iwate,http://chikyuuya.com
00000034,ジャド プール,Jhad Pul ,3.75,224,1000,1999,2000,2999,1000,1999,2000,2999,asia,https://tabelog.com/hokkaido/A0101/A010105/1046448/,https://tabelog.com/en/hokkaido/A0101/A010105/1046448/,北海道札幌市中央区南6西24-3-21 1F・2F,43.0500536,141.322556,北海道,24 Chome-3-21 Minami 6 Jonishi Chuo Ward Sapporo Hokkaido,Hokkaido,
00000035,ブラジル グリル,BRAZIL GRILL,3.57,38,1000,1999,5000,5999,1000,1999,3000,3999,asia,https://tabelog.com/gunma/A1001/A100102/10011057/,https://tabelog.com/en/gunma/A1001/A100102/10011057/,群馬県高崎市鞘町63-1 さやもーる通り,36.3254049,139.0060246,群馬県,63-1 Sayacho Takasaki Gunma,Gunma,https://brazilgrill-takasaki.com/
00000036,ニランカフェ,Nirankafe,3.47,101,0,999,2000,2999,0,999,3000,3999,asia,https://tabelog.com/saitama/A1102/A110202/11033908/,https://tabelog.com/en/saitama/A1102/A110202/11033908/,埼玉県戸田市本町4-4-16,35.8063714,139.6824601,埼玉県,4-chome-4-16 Honcho Toda Saitama,Saitama,https://nirancafe.com/
00000037,未来カレー こりす,Future Curry Koris,3.63,420,1000,999,2000,2999,1000,1999,1000,1999,asia,https://tabelog.com/hokkaido/A0101/A010103/1035490/,https://tabelog.com/en/hokkaido/A0101/A010103/1035490/,北海道札幌市中央区南3条西6 ARK36ビル 1F,43.055242,141.340692,北海道,Minami 3 Jonishi Chuo Ward Sapporo Hokkaido,Hokkaido,https://ja-jp.facebook.com/koriscurry
00000038,サイアム,SIAM,3.49,154,1000,999,2000,2999,1000,1999,2000,2999,asia,https://tabelog.com/hokkaido/A0101/A010204/1009201/,https://tabelog.com/en/hokkaido/A0101/A010204/1009201/,北海道札幌市西区琴似1条2丁目5-3 ハシモトビル 2F,43.0786087,141.3063734,北海道,2-chome-5-3 Kotoni 1 Jo Nishi-ku Sapporo Hokkaido,Hokkaido,http://www.hokkaidothai.com/
00000039,セイロン キッチン,Seironkicchin,3.47,62,1000,999,2000,2999,1000,1999,2000,2999,asia,https://tabelog.com/saitama/A1104/A110401/11054822/,https://tabelog.com/en/saitama/A1104/A110401/11054822/,埼玉県桶川市川田谷2817-17,36.00514,139.5670405,埼玉県,2817-17 Kawataya Okegawa Saitama,Saitama,
00000040,アユタヤ,Ayutaya,3.60,274,1000,999,2000,2999,1000,1999,1000,1999,asia,https://tabelog.com/chiba/A1202/A120201/12000203/,https://tabelog.com/en/chiba/A1202/A120201/12000203/,千葉県船橋市本町3-36-34 石井ビル 3F,35.6971124,139.9857794,千葉県,3-chome-36-34 Honcho Funabashi Chiba,Ciba,https://www.ayuthaya.info
00000041,南インド料理店 ボーディセナ,Minamiinndoryouritennbodexisena,3.59,354,1000,1999,3000,3999,1000,1999,2000,2999,asia,https://tabelog.com/kanagawa/A1401/A140104/14076991/,https://tabelog.com/en/kanagawa/A1401/A140104/14076991/,神奈川県横浜市中区住吉町3-28 新井ビル 1F,35.4464795,139.6376775,神奈川県,3-chome-28 Sumiyoshicho Naka-ku Yokohama Kanagawa,Kanagawa,
00000042,フォー ラスカル,Pho RASCAL,3.55,112,1000,1999,3000,3999,1000,1999,2000,2999,asia,https://tabelog.com/kanagawa/A1404/A140402/14072831/,https://tabelog.com/en/kanagawa/A1404/A140402/14072831/,神奈川県鎌倉市小町1-15-5,35.3166279,139.5510428,神奈川県,1-chome-15-5 Komachi Kamakura Kanagawa,Kanagawa,
00000043,冷めんの店 たかひ 高関店,Reimennomisetakahi,3.47,98,1000,1999,3000,3999,1000,1999,1000,1999,asia,https://tabelog.com/gunma/A1001/A100102/10011425/,https://tabelog.com/en/gunma/A1001/A100102/10011425/,群馬県高崎市高関町407,36.328077,139.0295208,群馬県,407 Takazekimachi Takasaki Gunma,Gunma,
00000044,アムリタ インドスパイスカレーとナンと,Amrit,3.62,113,1000,999,1000,1999,1000,1999,1000,1999,asia,https://tabelog.com/saitama/A1103/A110303/11051903/,https://tabelog.com/en/saitama/A1103/A110303/11051903/,埼玉県川越市鯨井新田12-27 トレニアコーポ 1F,35.9343555,139.4218019,埼玉県,12-27 Kujirai Shinden Kawagoe Saitama,Saitama,https://amritcurry.wixsite.com/amrit
00000045,タイ料理レストラン きんめだい,tairyouriresutorankimmedai,3.57,157,0,999,2000,2999,0,999,3000,3999,asia,https://tabelog.com/chiba/A1202/A120201/12045774/,https://tabelog.com/en/chiba/A1202/A120201/12045774/,千葉県船橋市山野町68-5 パストラル弐番館 1F,35.7060627,139.9610351,千葉県,68-5 Yamanocho Funabashi Chiba,Ciba,
00000046,Handi レストラン,Handhiresutoran,3.61,233,0,999,2000,2999,0,999,1000,1999,asia,https://tabelog.com/chiba/A1203/A120305/12026828/,https://tabelog.com/en/chiba/A1203/A120305/12026828/,千葉県野田市目吹1508-1,35.9648291,139.8821367,千葉県,1508-1 Mefuki Noda Chiba,Ciba,
00000047,あちゃーる,achaar,3.63,205,1000,1999,1000,1999,2000,2999,2000,2999,asia,https://tabelog.com/miyagi/A0401/A040104/4003415/,https://tabelog.com/en/miyagi/A0401/A040104/4003415/,宮城県仙台市泉区高森5-15-7,38.33601640000001,140.8528002,宮城県,Takamori Izumi Ward Sendai Miyagi,Miyagi,https://plaza.rakuten.co.jp/achaar/
00000048,パンジャビ ダバ,Panjabidaba,3.54,293,1000,1999,1000,1999,1000,1999,1000,1999,asia,https://tabelog.com/kanagawa/A1405/A140504/14048892/,https://tabelog.com/en/kanagawa/A1405/A140504/14048892/,神奈川県川崎市中原区小杉町1-519 田原ビル 1F,35.57905650000001,139.659259,神奈川県,1-chome-519 Kosugimachi Nakahara-ku Kawasaki Kanagawa,Kanagawa,https://punjabidhaba-halal-restaurant.business.site
00000049,エリックサウス KITTE名古屋店,ERICK SOUTH,3.71,808,1000,1999,1000,1999,1000,1999,1000,1999,asia,https://tabelog.com/aichi/A2301/A230101/23060430/,https://tabelog.com/en/aichi/A2301/A230101/23060430/,愛知県名古屋市中村区名駅1-1-1 KITTE名古屋 B1F,35.173081,136.8823772,愛知県,Aichi Nagoya Nakamura Ward Meieki 1-chome−1−１ JPタワー名古屋,Aichi,https://erick-south.com/nagoya/
00000050,ムムターズレストラン,Mumtaz Restaurant,3.53,100,1000,1999,1000,1999,1000,1999,1000,1999,asia,https://tabelog.com/chiba/A1203/A120303/12043760/,https://tabelog.com/en/chiba/A1203/A120303/12043760/,千葉県白井市河原子228-11,35.81555609999999,140.0592373,千葉県,228-11 Kawarago Shiroi Chiba,Ciba,
00000051,STAR,STAR,3.49,197,1000,1999,1000,1999,1000,1999,1000,1999,asia,https://tabelog.com/hokkaido/A0106/A010601/1042370/,https://tabelog.com/en/hokkaido/A0106/A010601/1042370/,北海道小樽市星野町19-2,43.1317785,141.1897445,北海道,19-2 Hoshinocho Otaru Hokkaido,Hokkaido,
00000052,バングラキッチン西千葉,Bangla Kitchen nishichiba,3.47,67,1000,1999,1000,1999,1000,1999,1000,1999,asia,https://tabelog.com/chiba/A1201/A120101/12054864/,https://tabelog.com/en/chiba/A1201/A120101/12054864/,千葉県千葉市中央区春日2-26-9,35.623828,140.1019365,千葉県,2-chome-26-9 Kasuga Chuo Ward Chiba,Ciba,
00000053,ヘラディワ,heladiwa ,3.51,104,1000,1999,1000,1999,1000,1999,1000,1999,asia,https://tabelog.com/ibaraki/A0802/A080201/8017310/,https://tabelog.com/en/ibaraki/A0802/A080201/8017310/,茨城県つくば市天久保1-8-6 グリーン天久保 2F,36.0922343,140.108644,茨城県,1-chome-8-6 Amakubo Tsukuba Ibaraki,Ibaraki,
00000054,タンハー,Tanha,3.60,168,1000,1999,1000,1999,1000,1999,1000,1999,asia,https://tabelog.com/kanagawa/A1407/A140702/14051586/,https://tabelog.com/en/kanagawa/A1407/A140702/14051586/,神奈川県横浜市泉区上飯田町3050,35.4298697,139.4755819,神奈川県,3050 Kamiiidacho Izumi-ku Yokohama Kanagawa,Kanagawa,
00000055,ニュールドリ,nyu-rudori,3.51,221,1000,1999,2000,2999,1000,1999,1000,1999,asia,https://tabelog.com/saitama/A1102/A110203/11035816/,https://tabelog.com/en/saitama/A1102/A110203/11035816/,埼玉県草加市谷塚1-21-1 メルヘンシャトー草加 1F,35.8109676,139.8021581,埼玉県,1-21-1 Yatsuka Soka Saitama,Saitama,
00000056,アーユーボーワン,AYUBOWAN,3.55,248,1000,999,2000,2999,1000,1999,1000,1999,asia,https://tabelog.com/chiba/A1203/A120301/12033520/,https://tabelog.com/en/chiba/A1203/A120301/12033520/,千葉県柏市東上町2-24 1F,35.8592526,139.9760204,千葉県,2-24 Azumakamicho Kashiwa Chiba,Ciba,https://www.ayubowan.jp/
00000057,サールナート,Sarunato,3.78,381,1000,1999,1000,1999,1000,1999,1000,1999,asia,https://tabelog.com/chiba/A1202/A120201/12000128/,https://tabelog.com/en/chiba/A1202/A120201/12000128/,千葉県船橋市宮本5-1-8,35.695747,139.9924433,千葉県,Miyamoto Chiba,Ciba,
00000058,ニャウ 西川口店,Nyau,3.50,96,1000,1999,3000,3999,1000,1999,3000,3999,asia,https://tabelog.com/saitama/A1102/A110201/11054017/,https://tabelog.com/en/saitama/A1102/A110201/11054017/,埼玉県川口市並木3-1-1 小山ビル 2F,35.8159543,139.7049111,埼玉県,3-chome-1-1 Namiki Kawaguchi Saitama,Saitama,
00000059,クルワ・プリックタイ,Kuruwapurikkutai,3.62,124,1000,1999,3000,3999,1000,1999,2000,2999,asia,https://tabelog.com/kanagawa/A1405/A140504/14062017/,https://tabelog.com/en/kanagawa/A1405/A140504/14062017/,神奈川県川崎市中原区上丸子山王町1-1401,35.5773424,139.6657967,神奈川県,1-chome-1401 Kamimarukosannocho Nakahara-ku Kawasaki Kanagawa,Kanagawa,
00000060,DEWAN 幕張店,Dhuwan,3.56,537,1000,999,3000,3999,1000,1999,1000,1999,asia,https://tabelog.com/chiba/A1201/A120102/12000695/,https://tabelog.com/en/chiba/A1201/A120102/12000695/,千葉県千葉市美浜区浜田2-33 グルメ大江戸ビル　 2F,35.6564981,140.0327429,千葉県,2-chome-33 Hamada Mihama-ku Chiba,Ciba,
00000061,マカン マカン,Makan Makan,3.58,197,1000,999,3000,3999,1000,1999,2000,2999,asia,https://tabelog.com/kanagawa/A1407/A140702/14004173/,https://tabelog.com/en/kanagawa/A1407/A140702/14004173/,神奈川県大和市中央1-6-19,35.4670238,139.4611102,神奈川県,Central Yamato Kanagawa,Kanagawa,
00000062,ランラサ,Ranrasa,3.48,76,1000,999,3000,3999,1000,1999,1000,1999,asia,https://tabelog.com/chiba/A1203/A120303/12033291/,https://tabelog.com/en/chiba/A1203/A120303/12033291/,千葉県白井市折立528-1,35.8065863,140.0414171,千葉県,528-1 Oritate Shiroi Chiba,Ciba,
00000063,クウシ,khushi,3.48,127,1000,999,3000,3999,1000,999,1000,1999,asia,https://tabelog.com/chiba/A1203/A120301/12020792/,https://tabelog.com/en/chiba/A1203/A120301/12020792/,千葉県柏市泉町6-38 サポーレ柏101,35.855708,139.9667206,千葉県,6-38 Izumicho Kashiwa Chiba,Ciba,
00000064,グート,GUUUT,3.72,13,1000,999,8000,9999,1000,999,10000,14999,asia,https://tabelog.com/nagano/A2006/A200601/20022280/,https://tabelog.com/en/nagano/A2006/A200601/20022280/,長野県上伊那郡箕輪町中箕輪542-1 古民家 箕澤屋,35.933116,137.9854384,長野県,542-1 Nakaminowa Minowa Kamiina-gun Nagano,Nagano,https://sadakichi-693.com/guuut/
00000065,マドラスミールス,madras meals,3.55,466,1000,1999,2000,2999,1000,1999,2000,2999,asia,https://tabelog.com/kanagawa/A1405/A140504/14043719/,https://tabelog.com/en/kanagawa/A1405/A140504/14043719/,神奈川県川崎市中原区上丸子八幡町816 山本ビル1F,35.5802253,139.6648681,神奈川県,816 Kamimarukohachimancho Nakahara-ku Kawasaki Kanagawa,Kanagawa,
00000066,シナモンガーデン 関内店,Shinamongaden,3.59,194,1000,1999,2000,2999,1000,1999,1000,1999,asia,https://tabelog.com/kanagawa/A1401/A140104/14089904/,https://tabelog.com/en/kanagawa/A1401/A140104/14089904/,神奈川県横浜市中区常盤町3-22-3 徳栄ビル 2F,35.4461136,139.6369005,神奈川県,Tokuei Bldg 3-chome-22-3 Tokiwacho Naka Ward Yokohama Kanagawa,Kanagawa,
00000067,ベトナムキッチン チャオチ,chaochi,3.42,37,1000,1999,1000,1999,1000,1999,1000,1999,asia,https://tabelog.com/fukushima/A0701/A070101/7014392/,https://tabelog.com/en/fukushima/A0701/A070101/7014392/,福島県福島市新町3-6,37.7554256,140.4672029,福島県,3-6 Shinmachi Fukushima,Fukushima,https://chaochi.wordpress.com
00000068,アジアンレストラン&バー マウンテン,Ajianresutoranandobamaunten,3.43,39,1000,999,1000,1999,1000,1999,1000,1999,asia,https://tabelog.com/saitama/A1102/A110203/11044572/,https://tabelog.com/en/saitama/A1102/A110203/11044572/,埼玉県草加市草加3-9-43,35.8393125,139.7987366,埼玉県,3-chome-9-43 Soka Saitama,Saitama,
00000069,カレーレストラン ヘラディワ 北条2号店,Kareresutoran heradhiwa,3.44,37,1000,999,1000,1999,1000,1999,1000,1999,asia,https://tabelog.com/ibaraki/A0802/A080201/8024547/,https://tabelog.com/en/ibaraki/A0802/A080201/8024547/,茨城県つくば市北条5124-2,36.1754943,140.0875,茨城県,5124-2 Hojo Tsukuba Ibaraki,Ibaraki,
00000070,カーサ パスカーレ,Kasa pasukare,3.54,84,1000,999,2000,2999,1000,1999,1000,1999,asia,https://tabelog.com/chiba/A1203/A120301/12049084/,https://tabelog.com/en/chiba/A1203/A120301/12049084/,千葉県柏市藤心3-3-8,35.8247862,139.9859653,千葉県,3-chome-3-8 Fujigokoro Kashiwa Chiba,Ciba,
00000071,カラチの空,Karachinosora,3.71,449,1000,999,2000,2999,1000,1999,1000,1999,asia,https://tabelog.com/saitama/A1102/A110205/11020803/,https://tabelog.com/en/saitama/A1102/A110205/11020803/,埼玉県八潮市中央1-7-11 三木ビル,35.8207558,139.8387913,埼玉県,1 Chome-7-11 Central Yashio Saitama,Saitama,http://www.yashio-karachinosora.com/
00000072,マッサマン タイキッチン,Massamantaikicchin,3.60,149,1000,1999,1000,1999,1000,1999,1000,1999,asia,https://tabelog.com/kanagawa/A1404/A140408/14048869/,https://tabelog.com/en/kanagawa/A1404/A140408/14048869/,神奈川県中郡大磯町大磯1045-6,35.3105156,139.3162609,神奈川県,1045-6 Ōiso Oiso Naka-gun Kanagawa,Kanagawa,
00000073,ランマイ,Rammai,3.47,82,1000,1999,1000,1999,1000,1999,1000,1999,asia,https://tabelog.com/saitama/A1103/A110303/11000183/,https://tabelog.com/en/saitama/A1103/A110303/11000183/,埼玉県川越市田町5-1 田町ビル　２Ｆ,35.9168666,139.4772112,埼玉県,5-1 Tamachi Kawagoe Saitama,Saitama,https://thaiselect.jp/sp/store/detail.php?pk=72
00000074,シムランダバ,Simran Dhaba,3.50,61,1000,1999,1000,1999,1000,1999,1000,1999,asia,https://tabelog.com/chiba/A1202/A120201/12054984/,https://tabelog.com/en/chiba/A1202/A120201/12054984/,千葉県船橋市習志野台1-12-1,35.7282808,140.0371755,千葉県,1-chome-12-1 Narashinodai Funabashi Chiba,Ciba,
00000075,マーフレストラン,MAFHH RESTAURANT,3.59,45,1000,1999,1000,1999,1000,1999,1000,1999,asia,https://tabelog.com/ibaraki/A0806/A080602/8015291/,https://tabelog.com/en/ibaraki/A0806/A080602/8015291/,茨城県常総市馬場441-8,36.132824,139.9183105,茨城県,441 Baba Joso Ibaraki,Ibaraki,
00000076,バンセンストア,Bansensutoa,3.61,117,1000,1999,1000,1999,1000,1999,1000,1999,asia,https://tabelog.com/ibaraki/A0801/A080102/8012548/,https://tabelog.com/en/ibaraki/A0801/A080102/8012548/,茨城県水戸市平戸町367-1,36.3223404,140.5627601,茨城県,367-1 Hiratocho Mito Ibaraki,Ibaraki,
00000077,ランディワ,RANDIWA,3.59,101,1000,1999,1000,1999,1000,1999,1000,1999,asia,https://tabelog.com/ibaraki/A0806/A080603/8011256/,https://tabelog.com/en/ibaraki/A0806/A080603/8011256/,茨城県常総市向石下899-3,36.1127663,139.9507057,茨城県,899-3 Mukoishige Joso Ibaraki,Ibaraki,
00000078,冨ノ家 本八幡本店,Tominoya,3.60,110,1000,1999,2000,2999,1000,1999,3000,3999,asia,https://tabelog.com/chiba/A1202/A120202/12003209/,https://tabelog.com/en/chiba/A1202/A120202/12003209/,千葉県市川市八幡1-11-13 シャトー森井　１Ｆ,35.71964639999999,139.9342634,千葉県,1-chome-11-13 Yawata Ichikawa Chiba,Ciba,
00000079,アリ インディアン レストラン,ALI INDIAN RESTAURANT,3.45,51,1000,999,1000,999,1000,1999,1000,1999,asia,https://tabelog.com/chiba/A1203/A120305/12042207/,https://tabelog.com/en/chiba/A1203/A120305/12042207/,千葉県野田市木間ケ瀬4700-1,36.0162099,139.8357258,千葉県,4700-1 Kimagase Noda Chiba,Ciba,
00000080,行徳ビリヤーニーハウス,GYOTOKU BIRYANI HOUSE,3.63,227,1000,1999,1000,1999,1000,1999,1000,1999,asia,https://tabelog.com/chiba/A1202/A120202/12045066/,https://tabelog.com/en/chiba/A1202/A120202/12045066/,千葉県市川市行徳駅前3-7-12 1F,35.6801906,139.9180913,千葉県,3-chome-7-12 Gyotoku Ekimae Ichikawa Chiba,Ciba,
00000081,サンライズレストラン,sanraizuresutoran,3.51,230,1000,1999,1000,1999,1000,1999,1000,1999,asia,https://tabelog.com/chiba/A1202/A120201/12044078/,https://tabelog.com/en/chiba/A1202/A120201/12044078/,千葉県船橋市本町4-5-18 小泉ビル 3F,35.7010773,139.987383,千葉県,4-chome-5-18 Honcho Funabashi Chiba,Ciba,
00000082,南インド家庭料理 カルナータカー,minamiindokateiryourikaruna-taka-,3.68,306,1000,1999,1000,1999,1000,1999,1000,1999,asia,https://tabelog.com/aichi/A2301/A230111/23044940/,https://tabelog.com/en/aichi/A2301/A230111/23044940/,愛知県名古屋市名東区豊ヶ丘1809,35.1871627,137.0133332,愛知県,1809 Yutakagaoka Meito-ku Nagoya Aichi,Aichi,http://www.masaladosa.jp/
00000083,シルクロード ムラト,Shirukurodomurato,3.58,167,1000,999,2000,2999,1000,1999,2000,2999,asia,https://tabelog.com/saitama/A1101/A110101/11002026/,https://tabelog.com/en/saitama/A1101/A110101/11002026/,埼玉県さいたま市桜区栄和3-20-13,35.868043,139.6166019,埼玉県,3-chome-20-13 Sakawa Sakura-ku Saitama,Saitama,http://silkroad-murat.com
00000084,ロビンズインドキッチン,Robin's Indian Kitchen,3.56,63,1000,999,2000,2999,1000,1999,1000,1999,asia,https://tabelog.com/chiba/A1202/A120201/12056250/,https://tabelog.com/en/chiba/A1202/A120201/12056250/,千葉県船橋市本中山4-25-16,35.712871,139.940461,千葉県,4-chome-25-16 Motonakayama Funabashi Chiba,Ciba,
00000085,コジコジ,Kojikoji,3.71,282,1000,1999,1000,1999,1000,1999,1000,1999,asia,https://tabelog.com/ibaraki/A0801/A080101/8014163/,https://tabelog.com/en/ibaraki/A0801/A080101/8014163/,茨城県水戸市渡里町2305-6 オザワビル 2F,36.4008277,140.4395985,茨城県,2305-6 Wataricho Mito Ibaraki,Ibaraki,
00000086,ナマステ 蓼科店,Namasute,3.59,46,1000,1999,1000,1999,1000,1999,5000,5999,asia,https://tabelog.com/nagano/A2004/A200403/20000030/,https://tabelog.com/en/nagano/A2004/A200403/20000030/,長野県茅野市北山鹿山4026-2 東急リゾートタウン内,36.07628830000001,138.2656972,長野県,Nagano Chino Kitayama 字鹿山４０２６番地２ 東急リゾート内,Nagano,http://www.namastejapan.com/
00000087,ピッサヌローク,Pissanuroku,3.79,67,1000,1999,10000,14999,1000,1999,20000,29999,asia,https://tabelog.com/aichi/A2301/A230106/23076912/,https://tabelog.com/en/aichi/A2301/A230106/23076912/,愛知県名古屋市東区葵2-2-22 桜通サンダイマンション 1F,35.1738058,136.9251449,愛知県,2-chome-2-22 Aoi Higashi Ward Nagoya Aichi,Aichi,https://phitsanulok.site
00000088,ラオパサ,LAO PASA,3.65,242,1000,1999,4000,4999,1000,999,3000,3999,asia,https://tabelog.com/aichi/A2301/A230104/23004325/,https://tabelog.com/en/aichi/A2301/A230104/23004325/,愛知県名古屋市東区泉2-13-4 カスティロ泉１B,35.1769409,136.9147765,愛知県,2-chome-13-4 Izumi Higashi-ku Nagoya Aichi,Aichi,https://laopasa.shopinfo.jp/
00000089,ボージャン,bhojan,3.62,164,1000,1999,4000,4999,2000,2999,3000,3999,asia,https://tabelog.com/kanagawa/A1404/A140406/14002527/,https://tabelog.com/en/kanagawa/A1404/A140406/14002527/,神奈川県茅ヶ崎市浜須賀1-44,35.3338221,139.4036897,神奈川県,1-44 Hamasuka Chigasaki Kanagawa,Kanagawa,https://bhojan.jp/
00000090,バナナリーフ,Banana Leaf,3.52,151,1000,1999,4000,4999,1000,1999,1000,1999,asia,https://tabelog.com/ibaraki/A0802/A080202/8013873/,https://tabelog.com/en/ibaraki/A0802/A080202/8013873/,茨城県土浦市中村東2-17-17,36.0431981,140.1711027,茨城県,2-chome-17-17 Nakamurahigashi Tsuchiura Ibaraki,Ibaraki,http://carshopichiro.wix.com/bananaleaf
00000091,釜山,Pusan,3.61,78,1000,1999,4000,4999,1000,1999,5000,5999,asia,https://tabelog.com/aichi/A2301/A230113/23000771/,https://tabelog.com/en/aichi/A2301/A230113/23000771/,愛知県名古屋市中村区藤江町3-45-1,35.1752365,136.8588687,愛知県,3-chome-45-1 Fujiecho Nakamura Ward Nagoya Aichi,Aichi,
00000092,ペンタイ,Pentai,3.58,141,1000,1999,1000,1999,1000,999,1000,1999,asia,https://tabelog.com/kanagawa/A1407/A140702/14003708/,https://tabelog.com/en/kanagawa/A1407/A140702/14003708/,神奈川県大和市南林間2-10-17,35.4962493,139.4468586,神奈川県,2-chome-10-17 Minamirinkan Yamato Kanagawa,Kanagawa,http://www.penthai-restaurant.com/
00000093,ボエチェー,BHOYE CHHEN,3.58,43,1000,1999,1000,1999,1000,1999,1000,1999,asia,https://tabelog.com/chiba/A1202/A120201/12055840/,https://tabelog.com/en/chiba/A1202/A120201/12055840/,千葉県船橋市本町2-11-22 友山ビル 2F,35.6973449,139.9818153,千葉県,2-chome-11-22 Honcho Funabashi Chiba,Ciba,
00000094,バンチャガル,Banchagaru,3.57,290,0,999,1000,1999,0,999,1000,1999,asia,https://tabelog.com/aichi/A2301/A230111/23009012/,https://tabelog.com/en/aichi/A2301/A230111/23009012/,愛知県名古屋市千種区星ヶ丘元町15-27,35.1616753,136.9871545,愛知県,15-27 Hoshigaoka Motomachi Chikusa-ku Nagoya Aichi,Aichi,
00000095,ハラール ドーサ ビリヤニ,Hararudosabiriyani,3.61,180,0,999,2000,2999,0,999,1000,1999,asia,https://tabelog.com/chiba/A1204/A120401/12046523/,https://tabelog.com/en/chiba/A1204/A120401/12046523/,千葉県成田市ウィング土屋24 イオンモール成田 2F,35.7955745,140.3187065,千葉県,24 Uingutsuchiya Narita Chiba,Ciba,
00000096,インターナショナルビレッジ,International Village,3.66,213,1000,999,2000,2999,1000,1999,1000,1999,asia,https://tabelog.com/aichi/A2302/A230202/23068551/,https://tabelog.com/en/aichi/A2302/A230202/23068551/,愛知県弥富市稲荷2-72-1,35.0754746,136.7770932,愛知県,2-chome-72-1 Inari Yatomi Aichi,Aichi,
00000097,ガンディー,Gandhi,3.55,418,0,999,1000,1999,0,999,1000,1999,asia,https://tabelog.com/chiba/A1202/A120201/12000107/,https://tabelog.com/en/chiba/A1202/A120201/12000107/,千葉県船橋市本町4-42-4,35.6994008,139.9865145,千葉県,4-chome-42-4 Honcho Funabashi Chiba,Ciba,
00000098,みち草バザール,Michikusabazaru,3.67,34,0,999,5000,5999,0,999,6000,7999,asia,https://tabelog.com/hokkaido/A0101/A010105/1063629/,https://tabelog.com/en/hokkaido/A0101/A010105/1063629/,北海道札幌市中央区南六条西22-3-56,43.0500032,141.3255066,北海道,22-chome-3-56 Minami 6 Jonishi Chuo Ward Sapporo Hokkaido,Hokkaido,https://www.michikusabazaar.com/
00000099,アキフーズ,Akihuzu,3.62,65,1000,1999,2000,2999,1000,1999,1000,1999,asia,https://tabelog.com/saitama/A1101/A110102/11053628/,https://tabelog.com/en/saitama/A1101/A110102/11053628/,埼玉県さいたま市緑区三室1629-9,35.8823771,139.6784528,埼玉県,1629 Mimuro Midori Ward Saitama,Saitama,
00000100,ALAN,ALAN,3.58,193,1000,1999,6000,7999,1000,1999,8000,9999,asia,https://tabelog.com/aichi/A2301/A230103/23072433/,https://tabelog.com/en/aichi/A2301/A230103/23072433/,愛知県名古屋市中区栄3-9-2 ジェムズ栄 3F,35.1673709,136.9038418,愛知県,3-chome-9-2 Sakae Naka-ku Nagoya Aichi,Aichi,https://somewhereltd.jp/alan/
