store_id,store_name,store_name_english,score,review_cnt,tabelog_lunch_budget_min,tabelog_lunch_budget_max,tabelog_dinner_budget_min,tabelog_dinner_budget_max,customer_lunch_budget_min,customer_lunch_budget_max,customer_dinner_budget_min,customer_dinner_budget_max,genre,url,url_english,address,latitude,longitude,prefecture,address_english,prefecture_english,website
00000001,サッチェズカリー,Sacchezukari,3.68,314,1000,999,1000,1999,1000,1999,1000,1999,curry,https://tabelog.com/osaka/A2701/A270101/27085130/,https://tabelog.com/en/osaka/A2701/A270101/27085130/,大阪府大阪市北区神山町14-23 シャトー東梅田 1F,34.7041101,135.5061364,大阪府,14-23 Kamiyamacho Kita-ku Osaka,Osaka,https://www.sacchescurry.com/
00000002,ムジャラ,Mujara,3.61,260,1000,999,1000,1999,1000,1999,1000,1999,curry,https://tabelog.com/kyoto/A2601/A260203/26027864/,https://tabelog.com/en/kyoto/A2601/A260203/26027864/,京都府京都市下京区高辻通大宮西入坊門町832 イツワマンション 1F,35.0001725,135.7479711,京都府,832 Bomoncho Shimogyo-ku Kyoto,Kyoto,
00000003,バンブルビー,Bumblebee,3.70,629,1000,1999,1000,1999,1000,1999,1000,1999,curry,https://tabelog.com/osaka/A2701/A270106/27007862/,https://tabelog.com/en/osaka/A2701/A270106/27007862/,大阪府大阪市西区西本町1-14-2 住吉ビル 1F,34.6827621,135.4940679,大阪府,1-chome-14-2 Nishihonmachi Nishi-ku Osaka,Osaka,https://www.bumblebee2006.com/
00000004,唯我独尊,Yuigadokuson,3.63,385,1000,1999,1000,1999,1000,1999,1000,1999,curry,https://tabelog.com/osaka/A2705/A270502/27043570/,https://tabelog.com/en/osaka/A2705/A270502/27043570/,大阪府岸和田市宮本町41-1,34.4593506,135.3762086,大阪府,41-1 Miyamotocho Kishiwada Osaka,Osaka,
00000005,ポンガラカレー 阪急サン広場店,Pongarakare,3.73,1087,1000,1999,1000,1999,1000,1999,1000,1999,curry,https://tabelog.com/osaka/A2701/A270101/27091267/,https://tabelog.com/en/osaka/A2701/A270101/27091267/,大阪府大阪市北区角田町8-47 阪急サン広場 B1F,34.7029862,135.4990478,大阪府,8-47 Kakudacho Kita-ku Osaka,Osaka,http://www.pongalacurry.com/
00000006,和レー屋 南船場ゴヤクラ,Goyakura,3.68,388,1000,1999,1000,1999,1000,1999,1000,999,curry,https://tabelog.com/osaka/A2701/A270201/27015562/,https://tabelog.com/en/osaka/A2701/A270201/27015562/,大阪府大阪市中央区南船場1-7-8 ダイアパレス順慶町 103,34.6778029,135.5088801,大阪府,1-chome-7-8 Minamisenba Chuo-ku Osaka,Osaka,
00000007,辛口飯屋 森元,Karakuchimeshiyamorigen,3.67,223,1000,999,1000,1999,1000,1999,1000,999,curry,https://tabelog.com/osaka/A2701/A270103/27087911/,https://tabelog.com/en/osaka/A2701/A270103/27087911/,大阪府大阪市北区西天満4-5-3 2F,34.696838,135.5051007,大阪府,4-chome-5-3 Nishitenma Kita-ku Osaka,Osaka,
00000008,北浜 丁子,kitahamachouji,3.68,308,1000,1999,2000,2999,1000,1999,1000,1999,curry,https://tabelog.com/osaka/A2701/A270102/27092176/,https://tabelog.com/en/osaka/A2701/A270102/27092176/,大阪府大阪市中央区東高麗橋5-3 高麗橋双葉ビル 3F,34.6888817,135.5100402,大阪府,5-3 Higashikoraibashi Chuo-ku Osaka,Osaka,
00000009,カルダモン．,Karudamon,3.71,973,1000,999,1000,999,1000,1999,1000,1999,curry,https://tabelog.com/osaka/A2701/A270103/27004332/,https://tabelog.com/en/osaka/A2701/A270103/27004332/,大阪府大阪市北区天神橋6-5-3,34.7088923,135.5115503,大阪府,6-chome-5-3 Tenjinbashi Kita-ku Osaka,Osaka,http://cardamon.cocolog-nifty.com/
00000010,路地裏カレー Tiki,rojiurakare-thiki,3.67,486,1000,999,1000,999,1000,1999,1000,1999,curry,https://tabelog.com/fukuoka/A4001/A400103/40032551/,https://tabelog.com/en/fukuoka/A4001/A400103/40032551/,福岡県福岡市中央区渡辺通5-24-38,33.5883074,130.402852,福岡県,5-chome-24-38 Watanabedori Chuo-ku Fukuoka,Fukuoka,http://tikicurry.com/
00000011,虹の仏,Nijinohotoke,3.75,718,1000,1999,1000,1999,1000,1999,1000,1999,curry,https://tabelog.com/osaka/A2701/A270203/27066977/,https://tabelog.com/en/osaka/A2701/A270203/27066977/,大阪府大阪市天王寺区四天王寺1-12-23,34.6562356,135.5140917,大阪府,1-chome-12-23 Shitennoji Tennoji-ku Osaka,Osaka,
00000012,谷口カレー,Taniguchikare,3.69,349,1000,999,1000,1999,1000,1999,1000,1999,curry,https://tabelog.com/osaka/A2701/A270102/27088233/,https://tabelog.com/en/osaka/A2701/A270102/27088233/,大阪府大阪市中央区平野町1-2-1 FOLK old book store,34.6871441,135.5094063,大阪府,1-chome-2-1 Hiranomachi Chuo-ku Osaka,Osaka,
00000013,BOTANI：CURRY 梅田店,BOTANI：CURRY,3.67,563,1000,1999,1000,1999,1000,1999,1000,1999,curry,https://tabelog.com/osaka/A2701/A270101/27125687/,https://tabelog.com/en/osaka/A2701/A270101/27125687/,大阪府大阪市北区梅田1-13-13 阪神百貨店梅田本店 9F,34.7012797,135.4983196,大阪府,1-chome-13-13 Umeda Kita Ward Osaka,Osaka,https://www.hanshin-dept.jp/hshonten/restaurantguide/foodhall06.html
00000014,アイリッシュ カレー 中津店,IRISH CURRY,3.68,426,1000,1999,1000,1999,1000,1999,1000,1999,curry,https://tabelog.com/osaka/A2701/A270101/27017872/,https://tabelog.com/en/osaka/A2701/A270101/27017872/,大阪府大阪市北区豊崎3-6-11 エイトビル１F,34.7108495,135.4990956,大阪府,3-chome-6-11 Toyosaki Kita-ku Osaka,Osaka,
00000015,ラーマ,RAMA,3.67,231,1000,1999,1000,1999,1000,1999,1000,1999,curry,https://tabelog.com/osaka/A2701/A270105/27089469/,https://tabelog.com/en/osaka/A2701/A270105/27089469/,大阪府大阪市西区土佐堀2-3-23 板東ビル 2F,34.6880411,135.4888195,大阪府,2-chome-3-23 Tosabori Nishi-ku Osaka,Osaka,
00000016,ガネーシュ N,GANESH N,3.75,620,1000,1999,1000,1999,1000,1999,1000,1999,curry,https://tabelog.com/osaka/A2701/A270103/27065938/,https://tabelog.com/en/osaka/A2701/A270103/27065938/,大阪府大阪市北区天神橋1-10-18,34.6940685,135.5125149,大阪府,1-chome-10-18 Tenjinbashi Kita-ku Osaka,Osaka,http://pakupakumame.com
00000017,カレー屋ヌンクイ,kare-yanunkui,3.63,151,1000,1999,1000,1999,1000,1999,1000,1999,curry,https://tabelog.com/osaka/A2705/A270501/27071545/,https://tabelog.com/en/osaka/A2705/A270501/27071545/,大阪府堺市堺区南島町2-51-1,34.5938927,135.4763896,大阪府,Minamijimacho Sakai Ward Sakai Osaka,Osaka,https://ja-jp.facebook.com/curryNunkui
00000018,SOMA,SOMA,3.74,733,1000,1999,1000,1999,1000,1999,1000,1999,curry,https://tabelog.com/osaka/A2701/A270101/27065233/,https://tabelog.com/en/osaka/A2701/A270101/27065233/,大阪府大阪市北区中津3-18-2,34.7109507,135.4929174,大阪府,3-chome-18-2 Nakatsu Kita-ku Osaka,Osaka,http://spicecurrysoma.blogspot.jp/
00000019,あいまい,Aimai,3.66,220,1000,1999,1000,1999,1000,1999,1000,1999,curry,https://tabelog.com/osaka/A2701/A270103/27082162/,https://tabelog.com/en/osaka/A2701/A270103/27082162/,大阪府大阪市北区天神橋2-2-28 永井ビル 2F,34.6955719,135.5116884,大阪府,2-chome-2-28 Tenjinbashi Kita-ku Osaka,Osaka,https://www.aimaicurry.com
00000020,まんねんカレー,Mannenkare,3.62,365,1000,1999,1000,1999,1000,1999,1000,1999,curry,https://tabelog.com/osaka/A2701/A270104/27081491/,https://tabelog.com/en/osaka/A2701/A270104/27081491/,大阪府大阪市中央区徳井町2-4-3 双葉グランドプラザ 101,34.6842571,135.5129147,大阪府,2-chome-4-3 Tokuicho Chuo-ku Osaka,Osaka,http://mannencurry.com/
00000021,curry bar nidomi,Curry bar nidomi,3.81,620,1000,1999,1000,1999,1000,1999,1000,1999,curry,https://tabelog.com/osaka/A2701/A270104/27062194/,https://tabelog.com/en/osaka/A2701/A270104/27062194/,大阪府大阪市中央区常盤町2-4-9 エクセル第6ビル 2F,34.68250829999999,135.5121391,大阪府,2-chome-4-9 Tokiwamachi Chuo-ku Osaka,Osaka,
00000022,スパイスチャンバー,SPICE CHAMBER,3.69,700,1000,1999,1000,1999,1000,1999,1000,1999,curry,https://tabelog.com/kyoto/A2601/A260201/26015938/,https://tabelog.com/en/kyoto/A2601/A260201/26015938/,京都府京都市下京区室町綾小路下る白楽天町502番地 福井ビル１Ｆ,35.0023859,135.7579664,京都府,Kyoto Shimogyo Ward 室町通綾小路下る白楽天町５０２,Kyoto,http://www.spicechamber.com/
00000023,白山文雅,Shirayamabunga,3.59,264,1000,1999,2000,2999,2000,2999,2000,2999,curry,https://tabelog.com/saga/A4101/A410101/41000017/,https://tabelog.com/en/saga/A4101/A410101/41000017/,佐賀県佐賀市白山1-2-1,33.2550264,130.2990259,佐賀県,1-chome-2-1 Shirayama Saga,Saga,https://www.shirayamabunga.com
00000024,百薫香辛食堂,Hyakkakoushinshokudou,3.68,305,1000,999,1000,1999,1000,1999,1000,1999,curry,https://tabelog.com/osaka/A2701/A270106/27117152/,https://tabelog.com/en/osaka/A2701/A270106/27117152/,大阪府大阪市中央区南本町3-5-5 プラスビル 2F,34.6828547,135.5012387,大阪府,3-chome-5-5 Minamihonmachi Chuo-ku Osaka,Osaka,
00000025,ナミニノカレー,Namininokare,3.69,318,1000,1999,1000,1999,1000,1999,1000,1999,curry,https://tabelog.com/osaka/A2701/A270103/27096795/,https://tabelog.com/en/osaka/A2701/A270103/27096795/,大阪府大阪市北区天神橋筋7-3-8 天六センタービル 3Ｆ,34.7117815,135.5110347,大阪府,7-chome-3-8 Tenjinbashi Kita-ku Osaka,Osaka,
00000026,カレー専門店 ビィヤント,kare-semmontembixiyanto,3.63,328,1000,999,1000,999,1000,1999,1000,1999,curry,https://tabelog.com/kyoto/A2601/A260302/26001075/,https://tabelog.com/en/kyoto/A2601/A260302/26001075/,京都府京都市左京区東大路通丸太町上ル東側聖護院西町12,35.01908969999999,135.7786253,京都府,Kyoto Sakyo Ward Shogoin Nishimachi 12 東大路通り,Kyoto,
00000027,ボタ,Buttah,3.64,216,1000,999,1000,999,1000,1999,1000,1999,curry,https://tabelog.com/osaka/A2701/A270201/27000588/,https://tabelog.com/en/osaka/A2701/A270201/27000588/,大阪府大阪市中央区東心斎橋1-8-20,34.6739012,135.5046634,大阪府,1-chome-8-20 Higashishinsaibashi Chuo-ku Osaka,Osaka,http://www.buttah.net
00000028,辛来飯,Karaisu,3.72,527,1000,999,1000,999,1000,999,1000,1999,curry,https://tabelog.com/osaka/A2701/A270106/27000068/,https://tabelog.com/en/osaka/A2701/A270106/27000068/,大阪府大阪市中央区安土町1-5-3 ループビル ２Ｆ,34.6844762,135.5083616,大阪府,1-chome-5-3 Azuchimachi Chuo-ku Osaka,Osaka,
00000029,もりやま屋,Moriyamaya,3.71,495,1000,999,1000,999,1000,1999,1000,1999,curry,https://tabelog.com/osaka/A2701/A270102/27002387/,https://tabelog.com/en/osaka/A2701/A270102/27002387/,大阪府大阪市北区西天満2-3-15 千都ビル　１Ｆ,34.6960355,135.5030062,大阪府,2-chome-3-15 Nishitenma Kita-ku Osaka,Osaka,
00000030,元町通り3丁目,Motomachidoorisanchoume,3.58,204,0,999,0,999,0,999,0,999,curry,https://tabelog.com/hyogo/A2801/A280102/28034158/,https://tabelog.com/en/hyogo/A2801/A280102/28034158/,兵庫県神戸市中央区元町通3-11-10,34.6874178,135.1842282,兵庫県,3-chome-11-10 Motomachidori Chuo-ku Kobe Hyogo,Hyogo,
00000031,カリー＆ナイス カトゥール,kari-andonaisukatwu-ru,3.66,191,1000,1999,1000,1999,1000,1999,1000,1999,curry,https://tabelog.com/osaka/A2701/A270104/27118198/,https://tabelog.com/en/osaka/A2701/A270104/27118198/,大阪府大阪市中央区東高麗橋2-1 ルート中之島ビル 2Ｆ,34.6890039,135.5114398,大阪府,2-1 Higashikoraibashi Chuo-ku Osaka,Osaka,
00000032,インデアンカレー 阪急三番街店,INDIAN CURRY,3.55,1363,0,999,0,999,0,999,0,999,curry,https://tabelog.com/osaka/A2701/A270101/27002480/,https://tabelog.com/en/osaka/A2701/A270101/27002480/,大阪府大阪市北区芝田1-1-3 阪急三番街 B2F,34.70596680000001,135.4984748,大阪府,1-chome-1-3 Shibata Kita-ku Osaka,Osaka,http://www.indiancurry.jp/
00000033,アンナプルナ,ANNAPURNA,3.66,162,0,999,0,999,0,999,0,999,curry,https://tabelog.com/osaka/A2701/A270103/27042046/,https://tabelog.com/en/osaka/A2701/A270103/27042046/,大阪府大阪市北区与力町2-10 東寺町ビル1F,34.699967,135.5127657,大阪府,2-10 Yorikimachi Kita-ku Osaka,Osaka,
00000034,スパイスカリー 大陸,Supaisukaritairiku,3.71,668,1000,1999,1000,1999,1000,1999,1000,1999,curry,https://tabelog.com/osaka/A2701/A270108/27093666/,https://tabelog.com/en/osaka/A2701/A270108/27093666/,大阪府大阪市福島区福島2-9-23,34.6946492,135.4864749,大阪府,2-chome-9-23 Fukushima Fukushima-ku Osaka,Osaka,https://www.u-en.jp/spicecurrytairiku
00000035,創作カレー ツキノワ,sousakukare-tsukinowa,3.71,541,1000,999,1000,1999,1000,1999,1000,1999,curry,https://tabelog.com/osaka/A2701/A270106/27092078/,https://tabelog.com/en/osaka/A2701/A270106/27092078/,大阪府大阪市中央区南久宝寺1-1-3 KT船場ビル 2F,34.6793875,135.5105605,大阪府,1-chome-3-1 Minamikyuhojimachi Chuo-ku Osaka,Osaka,
00000036,サトナカ,Satonaka,3.66,253,0,999,0,999,0,999,0,999,curry,https://tabelog.com/hyogo/A2801/A280102/28035822/,https://tabelog.com/en/hyogo/A2801/A280102/28035822/,兵庫県神戸市中央区八幡通1-1-21 甲南メゾン三宮 1F,34.6919642,135.2007501,兵庫県,1-chome-1-21 Hachimandori Chuo-ku Kobe Hyogo,Hyogo,
00000037,カマル,kamal,3.69,594,1000,1999,1000,1999,1000,1999,1000,1999,curry,https://tabelog.com/kyoto/A2601/A260202/26019639/,https://tabelog.com/en/kyoto/A2601/A260202/26019639/,京都府京都市中京区三条通東洞院東入ル菱屋町32-1,35.0085094,135.7612288,京都府,Kyoto Nakagyo Ward Hishiyacho ３２−１ 三条東洞院東入ル,Kyoto,http://www.kamal.asia/
00000038,若草カレー本舗,Wakakusakarehompo,3.63,391,1000,999,1000,1999,1000,1999,1000,1999,curry,https://tabelog.com/nara/A2901/A290101/29006593/,https://tabelog.com/en/nara/A2901/A290101/29006593/,奈良県奈良市餅飯殿町38-1,34.6807756,135.8288964,奈良県,38-1 Mochiidonocho Nara,Nara,http://www.wakakusacurry.jp/
00000039,カシミール,Kashimiru,3.84,786,1000,1999,1000,1999,1000,1999,1000,1999,curry,https://tabelog.com/osaka/A2701/A270102/27003694/,https://tabelog.com/en/osaka/A2701/A270102/27003694/,大阪府大阪市中央区東高麗橋6-2,34.6894792,135.5100343,大阪府,6-2 Higashikoraibashi Chuo-ku Osaka,Osaka,
00000040,ヤドカリー 天満橋本店,Yadokari,3.67,342,1000,999,1000,1999,1000,1999,1000,1999,curry,https://tabelog.com/osaka/A2701/A270104/27072330/,https://tabelog.com/en/osaka/A2701/A270104/27072330/,大阪府大阪市中央区谷町1-5-11 キャッスルリバー B1F,34.6879814,135.5170016,大阪府,1-chome-5-11 Tanimachi Chuo-ku Osaka,Osaka,http://yadocarry.jacklist.jp/
00000041,ボタニカリー,BOTANI:CURRY,3.89,1246,1000,999,1000,1999,1000,1999,1000,1999,curry,https://tabelog.com/osaka/A2701/A270102/27073555/,https://tabelog.com/en/osaka/A2701/A270102/27073555/,大阪府大阪市中央区瓦町4-5-3 日宝西本町ビル 1F,34.6863863,135.498917,大阪府,4-chome-5-3 Kawaramachi Chuo-ku Osaka,Osaka,http://botanicurry.com/
00000042,白銀亭,Hakugintei,3.72,1030,1000,999,1000,999,1000,1999,1000,1999,curry,https://tabelog.com/osaka/A2701/A270106/27012545/,https://tabelog.com/en/osaka/A2701/A270106/27012545/,大阪府大阪市中央区淡路町4-4-12 ダイドーメゾン大阪御堂筋　１Ｆ,34.6870426,135.4993788,大阪府,4-chome-4-12 Awajimachi Chuo-ku Osaka,Osaka,
00000043,モリ商店,Morishouten,3.67,260,1000,999,1000,999,1000,1999,1000,1999,curry,https://tabelog.com/osaka/A2701/A270103/27046303/,https://tabelog.com/en/osaka/A2701/A270103/27046303/,大阪府大阪市北区西天満4-3-9 和光ビル1F,34.6971514,135.505584,大阪府,4-chome-3-9 Nishitenma Kita-ku Osaka,Osaka,https://moricurry.jimdo.com
00000044,SAVOY,SAVOY,3.73,1032,0,999,0,999,0,999,0,999,curry,https://tabelog.com/hyogo/A2801/A280101/28000095/,https://tabelog.com/en/hyogo/A2801/A280101/28000095/,兵庫県神戸市中央区三宮町1-9-1 三宮センタープラザ東館 B1F,34.6916539,135.1921762,兵庫県,1-chome-9-1 Sannomiyacho Chuo-ku Kobe Hyogo,Hyogo,http://www.jazz-voice.biz/savoy/savoy_1.html
00000045,ラヴィリンス,Ravirinsu,3.71,625,1000,999,8000,999,1000,1999,8000,9999,curry,https://tabelog.com/osaka/A2701/A270201/27051602/,https://tabelog.com/en/osaka/A2701/A270201/27051602/,大阪府大阪市西区新町1-20-1,34.6770258,135.4958257,大阪府,1-chome-20-1 Shinmachi Nishi-ku Osaka,Osaka,http://naniwaotoko.blog3.fc2.com/
00000046,nandi,Nandhi,3.58,267,0,999,1000,1999,0,999,1000,999,curry,https://tabelog.com/hiroshima/A3401/A340117/34014601/,https://tabelog.com/en/hiroshima/A3401/A340117/34014601/,広島県広島市中区小町6-20,34.3877237,132.4569005,広島県,6-20 Komachi Naka-ku Hiroshima,Hiroshima,https://instagram.com/0822494511nandi?igshid=NTc4MTIwNjQ2YQ==
00000047,アングル,Angle,3.71,907,1000,1999,1000,1999,1000,1999,1000,1999,curry,https://tabelog.com/hyogo/A2803/A280304/28000142/,https://tabelog.com/en/hyogo/A2803/A280304/28000142/,兵庫県尼崎市南塚口町2-1-2 塚口さんさんタウン２番館　１Ｆ,34.7520686,135.4163956,兵庫県,1-2 Minamitsukaguchicho 2-chome Amagasaki Hyogo,Hyogo,https://tanto-angles.com/
00000048,スパイスカリーて,supaisukari-te,3.66,304,1000,1999,1000,1999,1000,1999,1000,1999,curry,https://tabelog.com/osaka/A2701/A270201/27094910/,https://tabelog.com/en/osaka/A2701/A270201/27094910/,大阪府大阪市中央区南船場3-1-16 ラッキービル　２F,34.677922,135.5026012,大阪府,3-chome-1-16 Minamisenba Chuo-ku Osaka,Osaka,http://spice-curry-te.com/
00000049,Sion,Shion,3.58,227,1000,1999,2000,2999,1000,1999,1000,1999,curry,https://tabelog.com/hyogo/A2801/A280102/28037333/,https://tabelog.com/en/hyogo/A2801/A280102/28037333/,兵庫県神戸市中央区元町通5-2-18,34.6846767,135.1818017,兵庫県,5-chome-2-18 Motomachidori Chuo-ku Kobe Hyogo,Hyogo,
00000050,ダール,Daru,3.64,323,1000,1999,2000,2999,1000,999,2000,999,curry,https://tabelog.com/osaka/A2701/A270104/27014409/,https://tabelog.com/en/osaka/A2701/A270104/27014409/,大阪府大阪市中央区徳井町1-4-13,34.6842563,135.5147179,大阪府,1-chome-4-13 Tokuicho Chuo-ku Osaka,Osaka,
00000051,GARAM,Garamu,3.65,331,1000,1999,2000,2999,1000,1999,2000,999,curry,https://tabelog.com/fukuoka/A4001/A400103/40032412/,https://tabelog.com/en/fukuoka/A4001/A400103/40032412/,福岡県福岡市中央区高砂1-7-4,33.5810445,130.4066615,福岡県,1-chome-7-4 Takasago Chuo-ku Fukuoka,Fukuoka,
00000052,定食堂 金剛石,Teishokudoukongouseki,3.72,576,1000,1999,2000,2999,1000,1999,1000,1999,curry,https://tabelog.com/osaka/A2701/A270204/27097683/,https://tabelog.com/en/osaka/A2701/A270204/27097683/,大阪府大阪市中央区瓦屋町1-8-25 ハイツ松屋町 1F,34.6728174,135.5123606,大阪府,1-chome-8-25 Kawarayamachi Chuo-ku Osaka,Osaka,
00000053,アーリオ・オーリオ,aglio olio,3.61,209,1000,1999,2000,2999,1000,1999,1000,1999,curry,https://tabelog.com/osaka/A2701/A270202/27062001/,https://tabelog.com/en/osaka/A2701/A270202/27062001/,大阪府大阪市中央区難波千日前7-4 スターハウスマンション 1F,34.6634664,135.5047554,大阪府,7-4 Nanbasennichimae Chuo-ku Osaka,Osaka,
00000054,太陽カレー,Taiyoukare,3.65,391,1000,1999,2000,2999,1000,1999,1000,1999,curry,https://tabelog.com/kyoto/A2601/A260401/26022669/,https://tabelog.com/en/kyoto/A2601/A260401/26022669/,京都府京都市中京区壬生西土居ノ内町19 ボイスビル 2F,35.0034123,135.7329821,京都府,19 Mibunishidoinouchicho Nakagyo-ku Kyoto,Kyoto,
00000055,旧ヤム邸 空堀店,Kyuuyamutei,3.79,1137,1000,1999,2000,2999,1000,1999,1000,1999,curry,https://tabelog.com/osaka/A2701/A270204/27060944/,https://tabelog.com/en/osaka/A2701/A270204/27060944/,大阪府大阪市中央区谷町6-4-23,34.6736415,135.5152113,大阪府,6-chome-4-23 Tanimachi Chuo-ku Osaka,Osaka,http://kyuyamutei.web.fc2.com/index.html
00000056,あきらカレー,Akirakare,3.67,215,1000,1999,2000,2999,1000,1999,3000,3999,curry,https://tabelog.com/osaka/A2701/A270102/27109182/,https://tabelog.com/en/osaka/A2701/A270102/27109182/,大阪府大阪市西区京町堀1-12-6,34.6871862,135.4952914,大阪府,1-chome-12-6 Kyomachibori Nishi-ku Osaka,Osaka,
00000057,ボナボナ,Bonabona,3.68,273,1000,999,3000,999,1000,1999,3000,3999,curry,https://tabelog.com/osaka/A2701/A270201/27005018/,https://tabelog.com/en/osaka/A2701/A270201/27005018/,大阪府大阪市西区新町1-22-12 TTビル2号館新町 101号,34.6764393,135.4944603,大阪府,1-chome-22-12 Shinmachi Nishi Ward Osaka,Osaka,
00000058,スパイスカレー43,Spice curry 43,3.64,201,1000,1999,1000,1999,1000,1999,3000,3999,curry,https://tabelog.com/osaka/A2701/A270106/27090129/,https://tabelog.com/en/osaka/A2701/A270106/27090129/,大阪府大阪市西区靭本町2-5-2 横井第7ビル 1F,34.683614,135.491494,大阪府,2-chome-5-2 Utsubohonmachi Nishi-ku Osaka,Osaka,
00000059,ノムソン カリー,NOMSON CURRY,3.68,386,1000,999,1000,1999,1000,1999,3000,3999,curry,https://tabelog.com/osaka/A2701/A270202/27086130/,https://tabelog.com/en/osaka/A2701/A270202/27086130/,大阪府大阪市浪速区日本橋東1-11-2,34.661043,135.5086131,大阪府,1-chome-11-2 Nipponbashihigashi Naniwa-ku Osaka,Osaka,
00000060,ココペリカレー,Kokoperikare,3.63,175,1000,1999,4000,4999,2000,2999,2000,2999,curry,https://tabelog.com/osaka/A2701/A270103/27095961/,https://tabelog.com/en/osaka/A2701/A270103/27095961/,大阪府大阪市北区東天満2-6-12 南森町双葉ビル 2F,34.6978597,135.514681,大阪府,2-chome-6-12 Higashitenma Kita-ku Osaka,Osaka,
00000061,京都カレー製作所 カリル,Kyoutokareseisakushokariru,3.60,325,1000,1999,4000,4999,1000,1999,1000,1999,curry,https://tabelog.com/kyoto/A2601/A260202/26025279/,https://tabelog.com/en/kyoto/A2601/A260202/26025279/,京都府京都市上京区春帯町349-1 永楽アパルシオン1F,35.0182335,135.7567106,京都府,349-1 Haruobicho Kamigyo-ku Kyoto,Kyoto,http://karil.jp/
00000062,レベルカレー,REBEL CURRY,3.72,469,1000,1999,4000,4999,1000,1999,1000,1999,curry,https://tabelog.com/osaka/A2701/A270106/27082257/,https://tabelog.com/en/osaka/A2701/A270106/27082257/,大阪府大阪市中央区南本町3-3-23 インペリアル船場ビル 2F,34.6825048,135.5021777,大阪府,3-chome-3-23 Minamihonmachi Chuo-ku Osaka,Osaka,
00000063,カレーや マドラス,kare-yamadorasu,3.67,485,1000,999,1000,999,1000,1999,1000,1999,curry,https://tabelog.com/osaka/A2701/A270206/27001518/,https://tabelog.com/en/osaka/A2701/A270206/27001518/,大阪府大阪市浪速区日本橋4-3-12,34.6598491,135.5067522,大阪府,4-chome-3-12 Nipponbashi Naniwa-ku Osaka,Osaka,http://www.nomo-2.com/madras/
00000064,モジャカレー,Mojakare,3.67,800,1000,1999,1000,1999,1000,1999,1000,1999,curry,https://tabelog.com/osaka/A2701/A270301/27012792/,https://tabelog.com/en/osaka/A2701/A270301/27012792/,大阪府大阪市淀川区西中島5-16-1 JR新大阪駅 1F 味の小路,34.7343396,135.5021085,大阪府,5-chome-16-1 Nishinakajima Yodogawa Ward Osaka,Osaka,
00000065,札幌スープカレーJACK 新町店,Sapporo Soup Curry JACK,3.64,280,1000,1999,1000,1999,1000,1999,1000,1999,curry,https://tabelog.com/osaka/A2701/A270105/27108418/,https://tabelog.com/en/osaka/A2701/A270105/27108418/,大阪府大阪市西区新町3-8-9 白髪橋ビル 1F,34.6771112,135.4890518,大阪府,3-chome-8-9 Shinmachi Nishi-ku Osaka,Osaka,
00000066,辛激屋,Shigekiya,3.69,432,1000,999,0,999,1000,1999,0,999,curry,https://tabelog.com/osaka/A2701/A270201/27011492/,https://tabelog.com/en/osaka/A2701/A270201/27011492/,大阪府大阪市中央区南船場2-5-21,34.675896,135.504476,大阪府,2-chome-5-21 Minamisenba Chuo-ku Osaka,Osaka,
00000067,マダム・カリー,Madamukari,3.65,223,1000,999,1000,999,1000,1999,1000,1999,curry,https://tabelog.com/osaka/A2701/A270102/27050578/,https://tabelog.com/en/osaka/A2701/A270102/27050578/,大阪府大阪市中央区高麗橋2-2-2 日宝北浜ビル１Ｆ,34.6893417,135.5057129,大阪府,2-chome-2-2 Koraibashi Chuo-ku Osaka,Osaka,
00000068,マジックスパイス なにわ店,Magic Spice,3.61,433,1000,999,1000,999,1000,1999,1000,1999,curry,https://tabelog.com/osaka/A2701/A270206/27004092/,https://tabelog.com/en/osaka/A2701/A270206/27004092/,大阪府大阪市浪速区稲荷1-10-20,34.6647008,135.4910766,大阪府,1-chome-10-20 Inari Naniwa-ku Osaka,Osaka,http://magicspice.net/
00000069,旧ヤム邸 中之島洋館,Kyuuyamutei,3.59,530,1000,1999,1000,999,1000,1999,1000,1999,curry,https://tabelog.com/osaka/A2701/A270108/27073991/,https://tabelog.com/en/osaka/A2701/A270108/27073991/,大阪府大阪市北区中之島3-6-32 ダイビル本館 2F,34.6932356,135.4928299,大阪府,3-chome-6-32 Nakanoshima Kita-ku Osaka,Osaka,
00000070,カレー専門店 白銀亭  イトゥビル店,kare-semmontenhakugintei,3.65,391,1000,999,1000,999,1000,1999,1000,1999,curry,https://tabelog.com/osaka/A2701/A270106/27091498/,https://tabelog.com/en/osaka/A2701/A270106/27091498/,大阪府大阪市中央区南本町3-6-14 イトゥビルB2F,34.6825349,135.5011098,大阪府,3-chome-6-14 Minamihonmachi Chuo-ku Osaka,Osaka,
00000071,カレーショップMASARA,kare-shoppumasara,3.61,337,1000,999,1000,999,1000,1999,1000,1999,curry,https://tabelog.com/osaka/A2701/A270101/27007871/,https://tabelog.com/en/osaka/A2701/A270101/27007871/,大阪府大阪市北区角田町9-16 新梅田食道街 1F,34.7035797,135.4980814,大阪府,9-16 Kakudacho Kita-ku Osaka,Osaka,
00000072,スパイスカレー旬香唐,supaisukare-shunkatou,3.66,257,1000,999,1000,999,1000,1999,1000,1999,curry,https://tabelog.com/osaka/A2701/A270301/27098909/,https://tabelog.com/en/osaka/A2701/A270301/27098909/,大阪府大阪市淀川区西中島4-5-4 ワイズコート新大阪 1F,34.7271578,135.4968938,大阪府,4-chome-5-4 Nishinakajima Yodogawa-ku Osaka,Osaka,
00000073,ハイダル,HYDER,3.62,155,1000,999,1000,999,1000,1999,1000,1999,curry,https://tabelog.com/fukuoka/A4001/A400104/40025012/,https://tabelog.com/en/fukuoka/A4001/A400104/40025012/,福岡県福岡市中央区警固2-9-10 コーポ山崎 1F,33.582618,130.3893529,福岡県,2-chome-9-10 Kego Chuo-ku Fukuoka,Fukuoka,https://hyder-curry.com/
00000074,ヴァスコ・ダ・ガマ 本店,Honkakukarenomisevasukodagama,3.67,494,1000,999,1000,999,1000,1999,1000,1999,curry,https://tabelog.com/osaka/A2706/A270604/27059288/,https://tabelog.com/en/osaka/A2706/A270604/27059288/,大阪府高槻市芥川町1-2 アクトアモーレ1F,34.8513337,135.6159718,大阪府,1 Chome-2 Akutagawacho Takatsuki Osaka,Osaka,
00000075,さぼてん食堂,Sabotenshokudou,3.71,646,1000,1999,1000,1999,1000,1999,1000,1999,curry,https://tabelog.com/osaka/A2701/A270102/27080580/,https://tabelog.com/en/osaka/A2701/A270102/27080580/,大阪府大阪市西区江戸堀1-23-12,34.6894668,135.4939442,大阪府,1-chome-23-12 Edobori Nishi-ku Osaka,Osaka,https://sabotenshokudo.hateblo.jp/
00000076,カレー コンドル,curry condor,3.64,306,1000,1999,1000,1999,1000,999,1000,1999,curry,https://tabelog.com/osaka/A2701/A270201/27059870/,https://tabelog.com/en/osaka/A2701/A270201/27059870/,大阪府大阪市西区北堀江1-16-16,34.6737489,135.4942701,大阪府,1-chome-16-16 Kitahorie Nishi-ku Osaka,Osaka,
00000077,アフターグロウ,Curry&Cafe Afterglow,3.62,263,1000,1999,1000,1999,1000,1999,1000,1999,curry,https://tabelog.com/fukuoka/A4001/A400105/40039440/,https://tabelog.com/en/fukuoka/A4001/A400105/40039440/,福岡県福岡市中央区草香江1-8-25,33.5826437,130.3738603,福岡県,1-chome-8-25 Kusagae Chuo-ku Fukuoka,Fukuoka,http://afterglow-curry.com/
00000078,渡邊カリー 心斎橋店,Watanabekari,3.63,261,1000,999,1000,999,1000,1999,1000,1999,curry,https://tabelog.com/osaka/A2701/A270201/27104341/,https://tabelog.com/en/osaka/A2701/A270201/27104341/,大阪府大阪市中央区南船場3-8-11 心斎橋元村ビル 202,34.677652,135.5015793,大阪府,3-chome-8-11 Minamisenba Chuo-ku Osaka,Osaka,http://www.watanabecurry.com
00000079,シナジー,Synergy,3.74,634,1000,999,1000,999,1000,1999,1000,1999,curry,https://tabelog.com/osaka/A2701/A270101/27074379/,https://tabelog.com/en/osaka/A2701/A270101/27074379/,大阪府大阪市北区堂島1丁目5-35 堂島レジャービル 2F,34.6962813,135.4968938,大阪府,1-chome-5-35 Dojima Kita-ku Osaka,Osaka,
00000080,カレーダイヤ,Karedaiya,3.62,236,1000,1999,1000,1999,1000,1999,1000,1999,curry,https://tabelog.com/osaka/A2701/A270304/27014328/,https://tabelog.com/en/osaka/A2701/A270304/27014328/,大阪府大阪市旭区大宮2-27-17,34.723854,135.5489117,大阪府,2-chome-27-17 Ōmiya Asahi-ku Osaka,Osaka,
00000081,スパイスカリー ハルモニア,Supaisukariharumonia,3.67,215,1000,1999,1000,1999,1000,1999,1000,1999,curry,https://tabelog.com/osaka/A2701/A270103/27103594/,https://tabelog.com/en/osaka/A2701/A270103/27103594/,大阪府大阪市北区天神橋4-2-7 天満松栄会館 106,34.7041662,135.5124158,大阪府,4-chome-2-7 Tenjinbashi Kita-ku Osaka,Osaka,
00000082,山口カリー,Yamaguchikari,3.67,188,1000,1999,1000,1999,1000,1999,1000,1999,curry,https://tabelog.com/osaka/A2701/A270103/27086717/,https://tabelog.com/en/osaka/A2701/A270103/27086717/,大阪府大阪市北区紅梅町2-6 昭和ビル1F,34.6986273,135.5129499,大阪府,2-6 Kobaicho Kita-ku Osaka,Osaka,
00000083,お出汁とスパイス 元祖 エレクトロニカレー,Odashitosupaisugansoerekutoronikare,3.67,326,1000,1999,1000,1999,1000,1999,1000,1999,curry,https://tabelog.com/osaka/A2701/A270107/27107380/,https://tabelog.com/en/osaka/A2701/A270107/27107380/,大阪府大阪市都島区中野町3-5-13,34.7020877,135.5282089,大阪府,3-chome-5-13 Nakanocho Miyakojima-ku Osaka,Osaka,https://ganso.electronicurry.com
00000084,ゴカルナ,Gokarna,3.60,221,1000,1999,1000,1999,1000,1999,1000,999,curry,https://tabelog.com/okinawa/A4701/A470101/47009029/,https://tabelog.com/en/okinawa/A4701/A470101/47009029/,沖縄県那覇市楚辺1-1-2,26.2106615,127.6841303,沖縄県,1-chome-1-2 Sobe Naha Okinawa,Okinawa,http://gokarnacurry.wix.com/gokarna
00000085,curry restaurant BRUNO HEP NAVIO店,kare-resutoramburu-no,3.66,795,1000,1999,1000,1999,1000,1999,1000,1999,curry,https://tabelog.com/osaka/A2701/A270101/27001963/,https://tabelog.com/en/osaka/A2701/A270101/27001963/,大阪府大阪市北区角田町7-10 HEP NAVIO 7F,34.70321819999999,135.5000051,大阪府,7-10 Kakudacho Kita-ku Osaka,Osaka,
00000086,Ghar,Ghar,3.87,920,1000,999,1000,1999,1000,1999,1000,1999,curry,https://tabelog.com/osaka/A2701/A270102/27066220/,https://tabelog.com/en/osaka/A2701/A270102/27066220/,大阪府大阪市西区京町堀1-9-10-103,34.6872747,135.4954762,大阪府,1-chome-9-10 Kyomachibori Nishi-ku Osaka,Osaka,http://ghar-curry.com/
00000087,王様のスプーン,Ousamanosupun,3.66,297,1000,1999,1000,1999,1000,1999,1000,999,curry,https://tabelog.com/osaka/A2701/A270103/27017245/,https://tabelog.com/en/osaka/A2701/A270103/27017245/,大阪府大阪市北区西天満5-11-4,34.6989411,135.5072607,大阪府,5-chome-11-4 Nishitenma Kita-ku Osaka,Osaka,https://o-samanospoon.com/shop.html
00000088,はらいそ スパークル,Haraisosupakuru,3.64,196,1000,1999,2000,2999,1000,1999,3000,3999,curry,https://tabelog.com/osaka/A2701/A270102/27100346/,https://tabelog.com/en/osaka/A2701/A270102/27100346/,大阪府大阪市西区江戸堀1-9-13 NEXAS HIGOBASHI 2F,34.6890836,135.4962219,大阪府,1-chome-9-13 Edobori Nishi-ku Osaka,Osaka,
00000089,渡邊カリー 梅田本店,watanabekari-,3.71,1154,1000,1999,1000,1999,1000,1999,1000,1999,curry,https://tabelog.com/osaka/A2701/A270101/27091294/,https://tabelog.com/en/osaka/A2701/A270101/27091294/,大阪府大阪市北区曽根崎新地2-2-5 第3シンコウビル 3F,34.697951,135.494839,大阪府,2-chome-2-5 Sonezakishinchi Kita-ku Osaka,Osaka,http://www.watanabecurry.com/
00000090,ガネーシュ m 北浜店,Ganeshuemu,3.68,352,1000,1999,1000,1999,1000,1999,1000,1999,curry,https://tabelog.com/osaka/A2701/A270102/27083172/,https://tabelog.com/en/osaka/A2701/A270102/27083172/,大阪府大阪市中央区道修町1-1-6 2F,34.6884906,135.5093405,大阪府,1-chome-1-6 Doshomachi Chuo-ku Osaka,Osaka,
00000091,コロンビアエイト 堺筋本町店,Columbia8 ,3.71,640,1000,1999,1000,1999,1000,1999,1000,1999,curry,https://tabelog.com/osaka/A2701/A270106/27050088/,https://tabelog.com/en/osaka/A2701/A270106/27050088/,大阪府大阪市中央区南久宝寺1-9-2 南久宝寺ビル 1F,34.679399,135.5072689,大阪府,1-chome-3-1 Minamikyuhojimachi Chuo-ku Osaka,Osaka,http://columbia8.info/sakaisuji
00000092,ヨバレヤ,Yobareya,3.62,282,1000,1999,1000,1999,1000,1999,1000,1999,curry,https://tabelog.com/osaka/A2701/A270201/27067687/,https://tabelog.com/en/osaka/A2701/A270201/27067687/,大阪府大阪市西区新町1-31-3,34.6768253,135.4940955,大阪府,1-chome-31-3 Shinmachi Nishi-ku Osaka,Osaka,http://www.yobareya.com/
00000093,森林食堂,Shinrinshokudou,3.83,446,1000,1999,1000,1999,2000,2999,2000,2999,curry,https://tabelog.com/kyoto/A2601/A260203/26020410/,https://tabelog.com/en/kyoto/A2601/A260203/26020410/,京都府京都市中京区西ノ京内畑町24-4,35.0137126,135.7388723,京都府,24-4 Nishinokyo Uchihatacho Nakagyo-ku Kyoto,Kyoto,http://shinrin-syokudo.com/
00000094,ニタカリバンチャ,Nitakaribancha,3.64,145,1000,1999,1000,1999,1000,1999,1000,1999,curry,https://tabelog.com/osaka/A2701/A270104/27106043/,https://tabelog.com/en/osaka/A2701/A270104/27106043/,大阪府大阪市中央区内淡路町2-2-1 木村ビル 1F,34.6864413,135.5132538,大阪府,2-chome-2-1 Uchiawajimachi Chuo-ku Osaka,Osaka,
00000095,らくしゅみ,Rakushumi,3.65,319,1000,1999,1000,1999,1000,1999,1000,1999,curry,https://tabelog.com/osaka/A2701/A270201/27004574/,https://tabelog.com/en/osaka/A2701/A270201/27004574/,大阪府大阪市西区新町1-20-7,34.6769843,135.495783,大阪府,1-chome-20-7 Shinmachi Nishi-ku Osaka,Osaka,http://www.ne.jp/asahi/mappy/morochan/laxmi/laxmi.html
00000096,旧ヤム鐵道,Kyuuyamutetsudou,3.75,1949,1000,1999,1000,1999,1000,1999,1000,1999,curry,https://tabelog.com/osaka/A2701/A270101/27084538/,https://tabelog.com/en/osaka/A2701/A270101/27084538/,大阪府大阪市北区梅田3-1-3 ルクアイーレ B2Fバルチカ,34.7017259,135.4931151,大阪府,3-chome-1-3 Umeda Kita-ku Osaka,Osaka,http://kyuyamutei.web.fc2.com/
00000097,小林カレー,Kobayashikare,3.57,261,1000,1999,1000,1999,1000,1999,1000,999,curry,https://tabelog.com/fukuoka/A4003/A400301/40000553/,https://tabelog.com/en/fukuoka/A4003/A400301/40000553/,福岡県筑紫野市二日市中央2-6-11,33.4957128,130.5183651,福岡県,Futsukaichichuo Chikushino Fukuoka,Fukuoka,
00000098,コロンビア エイト 北浜本店,Columbia8 ,3.73,850,1000,1999,1000,1999,1000,1999,1000,1999,curry,https://tabelog.com/osaka/A2701/A270102/27015618/,https://tabelog.com/en/osaka/A2701/A270102/27015618/,大阪府大阪市中央区道修町1-3-3 エビス道修町ビル２Ｆ,34.6882214,135.5086039,大阪府,1-chome-3-3 Doshomachi Chuo-ku Osaka,Osaka,http://columbia8.info/
00000099,アアベルカレー,Aaberukare,3.67,348,1000,1999,1000,1999,1000,1999,1000,1999,curry,https://tabelog.com/osaka/A2701/A270401/27091414/,https://tabelog.com/en/osaka/A2701/A270401/27091414/,大阪府大阪市西区九条1-25-9 フジイエステートビル3F,34.6745012,135.4732614,大阪府,1-chome-25-9 Kujo Nishi-ku Osaka,Osaka,
00000100,スパイスカリー バビルの塔,supaisukari-babirunotou,3.72,519,1000,1999,1000,1999,1000,1999,1000,999,curry,https://tabelog.com/osaka/A2701/A270104/27064588/,https://tabelog.com/en/osaka/A2701/A270104/27064588/,大阪府大阪市中央区徳井町2-4-5 エクセル内本町ハイツ 1F,34.6842419,135.5127305,大阪府,2-chome-4-5 Tokuicho Chuo-ku Osaka,Osaka,
