store_id,store_name,store_name_english,score,review_cnt,tabelog_lunch_budget_min,tabelog_lunch_budget_max,tabelog_dinner_budget_min,tabelog_dinner_budget_max,customer_lunch_budget_min,customer_lunch_budget_max,customer_dinner_budget_min,customer_dinner_budget_max,genre,url,url_english,address,latitude,longitude,prefecture,address_english,prefecture_english,website
00000001,丸祇羅,Marumasara,3.65,395,1000,1999,2000,2999,1000,1999,2000,2999,curry,https://tabelog.com/kanagawa/A1401/A140104/14079157/,https://tabelog.com/en/kanagawa/A1401/A140104/14079157/,神奈川県横浜市中区福富町仲通4-2 一和ビル 3F,35.4451824,139.6317362,神奈川県,Nakadori-4-2 Fukutomicho Naka-ku Yokohama Kanagawa,Kanagawa,
00000002,カレー オハナ,Kareohana,3.57,196,1000,1999,1000,1999,1000,1999,1000,1999,curry,https://tabelog.com/hokkaido/A0101/A010202/1003356/,https://tabelog.com/en/hokkaido/A0101/A010202/1003356/,北海道札幌市東区北32条東12-1-13,43.1018138,141.3638509,北海道,12-chome-1-13 Kita 32 Johigashi Higashi-ku Sapporo Hokkaido,Hokkaido,
00000003,カレー専門店cafe New Delhi,New Delhi,3.59,381,1000,999,1000,999,1000,1999,1000,1999,curry,https://tabelog.com/aichi/A2301/A230113/23007998/,https://tabelog.com/en/aichi/A2301/A230113/23007998/,愛知県名古屋市中村区向島町4-24-9,35.1613748,136.8486145,愛知県,4-chome-24-9 Mukojimacho Nakamura Ward Nagoya Aichi,Aichi,http://newdelhi.jugem.jp/
00000004,こうひいはうす,Kohihausu,3.67,285,1000,999,0,999,1000,1999,0,999,curry,https://tabelog.com/hokkaido/A0101/A010104/1002169/,https://tabelog.com/en/hokkaido/A0101/A010104/1002169/,北海道札幌市中央区南二十条西15-3 伏見コーポ　１Ｆ,43.0322841,141.3370969,北海道,Minami 20 Jonishi Chuo Ward Sapporo Hokkaido,Hokkaido,
00000005,黒岩咖哩飯店,Kuroiwakariihanten,3.66,320,1000,999,1000,999,1000,1999,1000,1999,curry,https://tabelog.com/hokkaido/A0101/A010102/1049128/,https://tabelog.com/en/hokkaido/A0101/A010102/1049128/,北海道札幌市中央区大通西8-2-39 北大通ビル B1F,43.060367,141.3443,北海道,8-chome-2-39 Ōdorinishi Chuo-ku Sapporo Hokkaido,Hokkaido,http://www.kuroiwa-curryhanten.com/
00000006,ZORA,Zora,3.65,203,1000,1999,1000,1999,1000,1999,1000,1999,curry,https://tabelog.com/hokkaido/A0101/A010102/1024540/,https://tabelog.com/en/hokkaido/A0101/A010102/1024540/,北海道札幌市中央区南1条西7丁目12-5 大通パークサイドビル 1F,43.058819,141.3474622,北海道,7-chome-12 Minami 1 Jonishi Chuo-ku Sapporo Hokkaido,Hokkaido,http://zora2009.com
00000007,スープカリー 奥芝商店  駅前創成寺,su-pukari-okushibashouten,3.59,644,1000,1999,1000,1999,2000,2999,2000,2999,curry,https://tabelog.com/hokkaido/A0101/A010101/1041930/,https://tabelog.com/en/hokkaido/A0101/A010101/1041930/,北海道札幌市中央区北4条西1丁目 ホクレンビル B1F パールタウン飲食店街,43.0667818,141.3543416,北海道,1 Chome-3-8 Kita 6 Jonishi Kita Ward Sapporo Hokkaido,Hokkaido,https://okushiba.net/
00000008,カレーのふらのや,Karenofuranoya,3.62,309,1000,1999,1000,1999,1000,1999,1000,1999,curry,https://tabelog.com/hokkaido/A0101/A010302/1031618/,https://tabelog.com/en/hokkaido/A0101/A010302/1031618/,北海道札幌市厚別区厚別西3条6丁目700-86,43.0530305,141.4714043,北海道,6-chome-700-86 Atsubetsu Nishi 3 Jo Atsubetsu-ku Sapporo Hokkaido,Hokkaido,
00000009,デリー 札幌店,DELHI,3.64,224,0,999,0,999,0,999,0,999,curry,https://tabelog.com/hokkaido/A0101/A010103/1006116/,https://tabelog.com/en/hokkaido/A0101/A010103/1006116/,北海道札幌市中央区南三条西1 狸小路１丁目南側,43.0577157,141.3562272,北海道,Minami 3 Jonishi Chuo Ward Sapporo Hokkaido,Hokkaido,https://restaurant-110469.business.site/?utm_source=gmb&utm_medium=referral
00000010,SAKURA BROWN,Sakuraburaun,3.63,146,1000,1999,1000,1999,1000,1999,1000,1999,curry,https://tabelog.com/hokkaido/A0101/A010204/1044404/,https://tabelog.com/en/hokkaido/A0101/A010204/1044404/,北海道札幌市西区琴似1条5-4-10 シティラディファンス 2F,43.0754616,141.3034442,北海道,Kotoni 1 Jo Nishi Ward Sapporo Hokkaido,Hokkaido,http://www.sakurabrown.com/
00000011,西屯田通りスープカレー本舗,Nishitondendoorisupukarehompo,3.61,191,1000,1999,1000,1999,1000,1999,1000,1999,curry,https://tabelog.com/hokkaido/A0101/A010104/1007981/,https://tabelog.com/en/hokkaido/A0101/A010104/1007981/,北海道札幌市中央区南八条西13-4-5,43.048931,141.3363053,北海道,Minami 8 Jonishi Chuo Ward Sapporo Hokkaido,Hokkaido,https://akr2454487403.owst.jp/
00000012,木多郎 澄川本店,Kitarou,3.65,228,1000,1999,1000,1999,1000,1999,1000,1999,curry,https://tabelog.com/hokkaido/A0101/A010305/1000174/,https://tabelog.com/en/hokkaido/A0101/A010305/1000174/,北海道札幌市南区澄川六条4-2-1 澄川ビル 1F,43.0124434,141.3750483,北海道,Sumikawa 6 Jo Minami Ward Sapporo Hokkaido,Hokkaido,
00000013,天竺 札幌清田本店,Tenjiku,3.62,245,1000,999,1000,1999,1000,1999,1000,1999,curry,https://tabelog.com/hokkaido/A0101/A010304/1039442/,https://tabelog.com/en/hokkaido/A0101/A010304/1039442/,北海道札幌市清田区平岡1条1-7-1,42.9968501,141.442881,北海道,1-chome-7-1 Hiraoka 1 Jo Kiyota-ku Sapporo Hokkaido,Hokkaido,https://curry-tenjiku.myshopify.com/
00000014,オクシモロン コマチ,OXYMORON komachi,3.66,888,1000,1999,1000,1999,1000,1999,1000,1999,curry,https://tabelog.com/kanagawa/A1404/A140402/14014612/,https://tabelog.com/en/kanagawa/A1404/A140402/14014612/,神奈川県鎌倉市雪ノ下1-5-38 2Ｆ,35.3227688,139.5525946,神奈川県,1-chome-5-38 Yukinoshita Kamakura Kanagawa,Kanagawa,http://www.oxymoron.jp
00000015,SOUP CURRY KING 本店,Supukarikingu,3.65,512,1000,1999,1000,1999,1000,1999,1000,1999,curry,https://tabelog.com/hokkaido/A0101/A010303/1006357/,https://tabelog.com/en/hokkaido/A0101/A010303/1006357/,北海道札幌市豊平区平岸三条16-1-1,43.02443,141.3678328,北海道,16-chome-1-1 Hiragishi 3 Jo Toyohira-ku Sapporo Hokkaido,Hokkaido,https://www.soupcurry-king.shop/
00000016,スパイス ポット 菊水本店,Supaisupotto,3.66,222,1000,1999,1000,1999,1000,1999,1000,1999,curry,https://tabelog.com/hokkaido/A0101/A010301/1025000/,https://tabelog.com/en/hokkaido/A0101/A010301/1025000/,北海道札幌市白石区菊水6条1丁目6-11,43.0618305,141.3762521,北海道,1-chome-6-11 Kikusui 6 Jo Shiroishi-ku Sapporo Hokkaido,Hokkaido,https://spicepot.jp/
00000017,五○堂,Gomarudou,3.64,220,1000,1999,1000,1999,1000,1999,1000,1999,curry,https://tabelog.com/hokkaido/A0101/A010104/1029487/,https://tabelog.com/en/hokkaido/A0101/A010104/1029487/,北海道札幌市中央区南8条西10丁目1277-37 カネトモビル2-１階,43.0489581,141.3438682,北海道,10 Chome Odorinishi Chuo Ward Sapporo Hokkaido,Hokkaido,
00000018,らっきょ,Rakkyo,3.64,397,1000,1999,1000,1999,1000,1999,1000,1999,curry,https://tabelog.com/hokkaido/A0101/A010204/1000164/,https://tabelog.com/en/hokkaido/A0101/A010204/1000164/,北海道札幌市西区琴似1条1-7-7 カピテーヌ琴似　１Ｆ,43.0798676,141.3082489,北海道,Kotoni 1 Jo Nishi Ward Sapporo Hokkaido,Hokkaido,http://www.spicegogo.com
00000019,タイガーカレー,Taigakare,3.66,526,1000,1999,1000,1999,1000,1999,1000,1999,curry,https://tabelog.com/hokkaido/A0101/A010201/1003065/,https://tabelog.com/en/hokkaido/A0101/A010201/1003065/,北海道札幌市北区北二十三条西4-2-3 プラザハイツ２４　１Ｆ,43.0897578,141.3443467,北海道,Kita 23 Jonishi Kita Ward Sapporo Hokkaido,Hokkaido,http://www.tigercurry.jp/
00000020,欧風カレーKEN,oufuukare-ken,3.64,392,1000,1999,1000,1999,1000,1999,1000,1999,curry,https://tabelog.com/hokkaido/A0101/A010202/1041827/,https://tabelog.com/en/hokkaido/A0101/A010202/1041827/,北海道札幌市東区北15条東1-2-17 イースタンビル 1F,43.0792592,141.3540988,北海道,1-chome-2-17 Kita 15 Johigashi Higashi-ku Sapporo Hokkaido,Hokkaido,
00000021,モアナマカイ珊瑚礁,moanamakaisangoshou,3.59,1329,1000,1999,2000,2999,1000,1999,2000,2999,curry,https://tabelog.com/kanagawa/A1404/A140402/14000586/,https://tabelog.com/en/kanagawa/A1404/A140402/14000586/,神奈川県鎌倉市七里ガ浜1-3-22,35.3057084,139.5089711,神奈川県,1-chome-3-22 Shichirigahama Kamakura Kanagawa,Kanagawa,http://www.sangosho.net/
00000022,カレー リーブス,curry leaves,3.62,152,1000,1999,1000,1999,1000,1999,1000,999,curry,https://tabelog.com/hokkaido/A0101/A010303/1000687/,https://tabelog.com/en/hokkaido/A0101/A010303/1000687/,北海道札幌市豊平区西岡四条7丁目7-10,43.010113,141.3874546,北海道,7-chome-7-10 Nishioka 4 Jo Toyohira-ku Sapporo Hokkaido,Hokkaido,http://curry-leaves.com
00000023,Curry House MUMBAI 松戸店,kare-hausumumbai,3.62,322,0,999,1000,1999,0,999,1000,1999,curry,https://tabelog.com/chiba/A1203/A120302/12034462/,https://tabelog.com/en/chiba/A1203/A120302/12034462/,千葉県松戸市松戸1150 ニューハイム松戸ビル 2F,35.7848401,139.9029185,千葉県,1150 Matsudo Chiba,Ciba,
00000024,スープカレーGARAKU,su-pukare-,3.61,639,1000,1999,1000,1999,1000,1999,1000,1999,curry,https://tabelog.com/hokkaido/A0101/A010103/1006746/,https://tabelog.com/en/hokkaido/A0101/A010103/1006746/,北海道札幌市中央区南2条西2-6-1 おくむらビル B1F,43.0578925,141.3551428,北海道,Minami 2 Jonishi Chuo Ward Sapporo Hokkaido,Hokkaido,http://www.s-garaku.com/
00000025,Kikuya Curry,Kikuyakari,3.69,735,1000,1999,1000,1999,1000,1999,1000,1999,curry,https://tabelog.com/kanagawa/A1401/A140102/14004143/,https://tabelog.com/en/kanagawa/A1401/A140102/14004143/,神奈川県横浜市中区野毛町4-173 天悦ビル　１０１,35.4484669,139.6270192,神奈川県,4-chome-173 Nogecho Naka-ku Yokohama Kanagawa,Kanagawa,
00000026,ハイ，ハウ アー ユー,Haihauayu,3.69,585,1000,999,1000,1999,1000,1999,1000,1999,curry,https://tabelog.com/kanagawa/A1401/A140204/14040637/,https://tabelog.com/en/kanagawa/A1401/A140204/14040637/,神奈川県横浜市港北区日吉本町1-21-5 西之蔵ビル　３Ｆ,35.5532101,139.6460362,神奈川県,1-chome-21-5 Hiyoshihoncho Kohoku Ward Yokohama Kanagawa,Kanagawa,http://www.trillcurry.com/
00000027,中華 大島,chuukaooshima,3.61,238,1000,999,1000,1999,1000,1999,1000,1999,curry,https://tabelog.com/chiba/A1203/A120301/12009777/,https://tabelog.com/en/chiba/A1203/A120301/12009777/,千葉県柏市中央1-6-4,35.8577085,139.9710013,千葉県,1-chome-6-4 Chuo Kashiwa Chiba,Ciba,
00000028,スープカレー奥芝商店 旭川亭,su-pukare-okushibashouten,3.55,227,1000,1999,1000,1999,1000,1999,1000,1999,curry,https://tabelog.com/hokkaido/A0104/A010401/1008896/,https://tabelog.com/en/hokkaido/A0104/A010401/1008896/,北海道旭川市旭町1条13-2146-14,43.7900117,142.3470777,北海道,13-chome-2146-14 Asahimachi 1 Jo Asahikawa Hokkaido,Hokkaido,https://okushiba.net/
00000029,しまや,Shimaya,3.68,557,1000,999,1000,1999,1000,1999,1000,1999,curry,https://tabelog.com/kanagawa/A1405/A140501/14068355/,https://tabelog.com/en/kanagawa/A1405/A140501/14068355/,神奈川県川崎市川崎区南町1-12,35.5273654,139.700191,神奈川県,1-12 Minamimachi Kawasaki-ku Kawasaki Kanagawa,Kanagawa,
00000030,珊瑚礁 本店,Sangoshou,3.59,900,1000,1999,2000,2999,2000,2999,2000,2999,curry,https://tabelog.com/kanagawa/A1404/A140402/14000276/,https://tabelog.com/en/kanagawa/A1404/A140402/14000276/,神奈川県鎌倉市七里ガ浜東3-1-2,35.3091008,139.516627,神奈川県,Shichirigahamahigashi Kamakura Kanagawa,Kanagawa,http://www.sangosho.net/
00000031,サリサリカリー,Sarisarikari,3.61,393,1000,1999,2000,2999,1000,1999,1000,1999,curry,https://tabelog.com/kanagawa/A1401/A140205/14064834/,https://tabelog.com/en/kanagawa/A1401/A140205/14064834/,神奈川県横浜市神奈川区西神奈川3-9-2,35.4865752,139.6262422,神奈川県,3-chome-9-2 Nishikanagawa Kanagawa-ku Yokohama Kanagawa,Kanagawa,http://salisali.web.fc2.com
00000032,ヴィラ・アフガン,Viraafugan,3.59,377,2000,2999,2000,2999,1000,1999,2000,2999,curry,https://tabelog.com/yamanashi/A1902/A190201/19000083/,https://tabelog.com/en/yamanashi/A1902/A190201/19000083/,山梨県北杜市大泉町西井出8240-3510,35.91219940000001,138.4083042,山梨県,8240-3510 Ōizumicho Nishiide Hokuto Yamanashi,Yamanashi,http://mixi.jp/view_community.pl?id=2834524
00000033,スープカリー ヒリヒリ2号,Supukarihirihirinigou,3.62,659,1000,1999,1000,1999,1000,1999,1000,1999,curry,https://tabelog.com/hokkaido/A0101/A010101/1004285/,https://tabelog.com/en/hokkaido/A0101/A010101/1004285/,北海道札幌市北区北6条西6-1-1 ＷＥＳＴ６,43.0674621,141.3459967,北海道,Kita 6 Jonishi Kita Ward Sapporo Hokkaido,Hokkaido,http://hirihiri.jp/
00000034,かれーの店 ポカラ,Karenomisepokara,3.56,161,1000,1999,1000,1999,1000,999,1000,999,curry,https://tabelog.com/kanagawa/A1407/A140701/14006400/,https://tabelog.com/en/kanagawa/A1407/A140701/14006400/,神奈川県相模原市中央区千代田3-18-14,35.5639445,139.3773207,神奈川県,Chiyoda Chuo Ward Sagamihara Kanagawa,Kanagawa,
00000035,イエロー,soup curry yellow,3.69,1288,1000,999,1000,1999,1000,1999,1000,1999,curry,https://tabelog.com/hokkaido/A0101/A010103/1002181/,https://tabelog.com/en/hokkaido/A0101/A010103/1002181/,北海道札幌市中央区南三条西1-12-19 エルムビル　１Ｆ,43.05682849999999,141.357365,北海道,Minami 3 Jonishi Chuo Ward Sapporo Hokkaido,Hokkaido,https://www.yellow1996.com
00000036,レッドチリ,RED CHILI,3.62,236,1000,999,1000,1999,1000,1999,1000,1999,curry,https://tabelog.com/hokkaido/A0101/A010105/1003320/,https://tabelog.com/en/hokkaido/A0101/A010105/1003320/,北海道札幌市中央区北3条西26丁目2-15 第23松井ビル Gクレフ3261F,43.0605014,141.3169777,北海道,26-chome-2-15 Kita 3 Jonishi Chuo-ku Sapporo Hokkaido,Hokkaido,http://www.redchili.red/index.html
00000037,スープカリー スアゲ プラス,Soup curry Suage+,3.69,1579,1000,1999,1000,1999,1000,1999,1000,1999,curry,https://tabelog.com/hokkaido/A0101/A010103/1006004/,https://tabelog.com/en/hokkaido/A0101/A010103/1006004/,北海道札幌市中央区南4条西5 都志松ビル 2F,43.0557369,141.3512699,北海道,Minami 4 Jonishi Chuo Ward Sapporo Hokkaido,Hokkaido,http://www.suage.info
00000038,カラバトカリー,Karabatokari,3.64,334,1000,1999,1000,1999,1000,1999,1000,999,curry,https://tabelog.com/hokkaido/A0101/A010305/1002186/,https://tabelog.com/en/hokkaido/A0101/A010305/1002186/,北海道札幌市南区藤野二条12-6-1,42.9614306,141.2760875,北海道,12-chome-6-1 Fujino 2 Jo Minami-ku Sapporo Hokkaido,Hokkaido,
00000039,カオスヘブン 札幌店,Chaos Heaven,3.68,432,1000,1999,1000,1999,1000,1999,1000,1999,curry,https://tabelog.com/hokkaido/A0101/A010103/1042039/,https://tabelog.com/en/hokkaido/A0101/A010103/1042039/,北海道札幌市中央区南5条東2-12-3 2F,43.0564595,141.3617075,北海道,Minami 5 Johigashi Chuo Ward Sapporo Hokkaido,Hokkaido,https://www.instagram.com/chaosheavensapporo/
00000040,カレー魂 デストロイヤー 西線14条,kare-damashiidesutoroiya-,3.63,120,1000,999,1000,999,1000,1999,1000,1999,curry,https://tabelog.com/hokkaido/A0101/A010104/1053355/,https://tabelog.com/en/hokkaido/A0101/A010104/1053355/,北海道札幌市中央区南14条西14丁目1-23,43.0412673,141.3364953,北海道,14-chome-1-23 Minami 14 Jonishi Chuo-ku Sapporo Hokkaido,Hokkaido,
00000041,匠 三越店,Takumi,3.59,200,1000,1999,1000,1999,1000,1999,1000,1999,curry,https://tabelog.com/aichi/A2301/A230103/23007038/,https://tabelog.com/en/aichi/A2301/A230103/23007038/,愛知県名古屋市中区栄3-5-1 名古屋栄三越 B1F,35.1683331,136.9076855,愛知県,3-chome-5-1 Sakae Naka-ku Nagoya Aichi,Aichi,https://www.nagoya-takumi.jp/access_mitsukoshi/
00000042,カレーレストラン シバ,Kareresutoranshiba,3.68,454,1000,1999,2000,2999,1000,1999,2000,2999,curry,https://tabelog.com/chiba/A1201/A120104/12000017/,https://tabelog.com/en/chiba/A1201/A120104/12000017/,千葉県千葉市稲毛区稲毛東3-19-15 ｍｆビル　１Ｆ,35.636423,140.0926707,千葉県,3-chome-19-15 Inagehigashi Inage-ku Chiba,Ciba,http://curry0shiba.wordpress.com/
00000043,カレーの店 ボンベイ 本店,Karenomisebombei,3.70,831,1000,1999,1000,999,1000,1999,1000,1999,curry,https://tabelog.com/chiba/A1203/A120301/12026182/,https://tabelog.com/en/chiba/A1203/A120301/12026182/,千葉県柏市柏3-6-16 磯野ビル 1F,35.8601262,139.9743587,千葉県,Kashiwa Chiba,Ciba,http://curryhouse-bombay.com/
00000044,コスギカレー,KOSUGI CURRY,3.70,730,1000,999,1000,1999,1000,1999,1000,1999,curry,https://tabelog.com/kanagawa/A1405/A140504/14042207/,https://tabelog.com/en/kanagawa/A1405/A140504/14042207/,神奈川県川崎市中原区新丸子東2-897-11 ラポール新丸子102,35.5783472,139.6626274,神奈川県,2-chome-897-11 Shinmarukohigashi Nakahara-ku Kawasaki Kanagawa,Kanagawa,http://kosugicurry.com/
00000045,カレー気分,Karekibun,3.62,139,1000,999,1000,1999,1000,1999,1000,1999,curry,https://tabelog.com/hokkaido/A0101/A010304/1000874/,https://tabelog.com/en/hokkaido/A0101/A010304/1000874/,北海道札幌市清田区北野6条2-11-4 尾崎ビル 1F,43.0193019,141.4349586,北海道,2-chome-11-4 Kitano 6 Jo Kiyota-ku Sapporo Hokkaido,Hokkaido,
00000046,カレーハウス 横浜 ボンベイ,Karehausuyokohamabombei,3.68,572,1000,1999,1000,1999,1000,1999,1000,1999,curry,https://tabelog.com/kanagawa/A1401/A140305/14000620/,https://tabelog.com/en/kanagawa/A1401/A140305/14000620/,神奈川県横浜市戸塚区戸塚町120 斉藤ビル 2F,35.3980148,139.5317085,神奈川県,120 Totsukacho Totsuka-ku Yokohama Kanagawa,Kanagawa,https://www.yokohama-bombay.com/
00000047,ピカンティ,Picante,3.67,792,1000,1999,1000,1999,1000,1999,1000,1999,curry,https://tabelog.com/hokkaido/A0101/A010201/1000060/,https://tabelog.com/en/hokkaido/A0101/A010201/1000060/,北海道札幌市北区北十三条西3 アクロビュ－北大前　１Ｆ,43.0779575,141.340013,北海道,3 Chome Kita 13 Jonishi Kita Ward Sapporo Hokkaido,Hokkaido,http://www.picante.jp/
00000048,Curry&herb Cherry blossom,Kareandohabucheriburossamu,3.60,292,1000,1999,1000,1999,2000,2999,1000,1999,curry,https://tabelog.com/kanagawa/A1405/A140508/14000777/,https://tabelog.com/en/kanagawa/A1405/A140508/14000777/,神奈川県川崎市麻生区上麻生1-20-1 新百合ヶ丘駅構内南口,35.603805,139.507605,神奈川県,Kamiasao Asao Ward Kawasaki Kanagawa,Kanagawa,
00000049,マタレー 円山店,MATALE,3.61,210,1000,1999,1000,1999,1000,1999,1000,1999,curry,https://tabelog.com/hokkaido/A0101/A010105/1025101/,https://tabelog.com/en/hokkaido/A0101/A010105/1025101/,北海道札幌市中央区南1条西23丁目1-8,43.0554705,141.3230553,北海道,23-chome-1-8 Minami 1 Jonishi Chuo-ku Sapporo Hokkaido,Hokkaido,
00000050,カリーハウス コロンボ,kari-hausukorombo,3.67,877,1000,1999,1000,1999,1000,1999,1000,1999,curry,https://tabelog.com/hokkaido/A0101/A010101/1004447/,https://tabelog.com/en/hokkaido/A0101/A010101/1004447/,北海道札幌市中央区北四条西4-1 札幌国際ビル B1F,43.0659733,141.3502367,北海道,Kita 4 Jonishi Chuo Ward Sapporo Hokkaido,Hokkaido,http://www.colombo1973.com/
00000051,ピカンティ 札幌駅前店,Pikanthi,3.57,471,1000,1999,1000,1999,1000,1999,1000,1999,curry,https://tabelog.com/hokkaido/A0101/A010101/1025001/,https://tabelog.com/en/hokkaido/A0101/A010101/1025001/,北海道札幌市中央区北2条西1-8-4 青山ビル　1F,43.0640157,141.3547726,北海道,Hokkaido Sapporo Chuo Ward Kita 2 Jonishi 1 Chome−８番地４ 青山ビル 1F,Hokkaido,http://www.picante2009.com/
00000052,らっきょ＆Star,Rakkyoandosuta,3.71,912,1000,1999,2000,2999,1000,1999,1000,1999,curry,https://tabelog.com/kanagawa/A1401/A140204/14009431/,https://tabelog.com/en/kanagawa/A1401/A140204/14009431/,神奈川県横浜市港北区綱島西1-2-9 ゴールデンパーク 1F,35.537856,139.6354461,神奈川県,1-chome-2-9 Tsunashimanishi Kohoku Ward Yokohama Kanagawa,Kanagawa,http://www.spicegogo.com/
00000053,カリーヤ！コング,Kariyakongu,3.84,336,2000,2999,2000,2999,2000,2999,1000,1999,curry,https://tabelog.com/hokkaido/A0101/A010104/1029696/,https://tabelog.com/en/hokkaido/A0101/A010104/1029696/,北海道札幌市中央区南16条西6丁目2-10 IR山鼻 1F,43.0382196,141.3524612,北海道,6-chome-2-10 Minami 16 Jonishi Chuo-ku Sapporo Hokkaido,Hokkaido,http://www.curry-ya-cong.com/
00000054,一文字カリー店,Ichimonjikariten,3.81,738,2000,2999,2000,2999,1000,1999,1000,1999,curry,https://tabelog.com/hokkaido/A0101/A010301/1024063/,https://tabelog.com/en/hokkaido/A0101/A010301/1024063/,北海道札幌市白石区本通17丁目南2-4 ストーンビル本通17 1F,43.0355201,141.4339002,北海道,17 Minami-2-4 Hondori Shiroishi-ku Sapporo Hokkaido,Hokkaido,
00000055,唯我独尊,Yuigadokuson,3.65,939,2000,2999,2000,2999,1000,1999,1000,1999,curry,https://tabelog.com/hokkaido/A0104/A010403/1000063/,https://tabelog.com/en/hokkaido/A0104/A010403/1000063/,北海道富良野市日の出町11-8,43.3449745,142.3894315,北海道,11-8 Hinodemachi Furano Hokkaido,Hokkaido,http://doxon.jp/
00000056,マジックスパイス 札幌本店,Majikkusupaisu,3.63,554,2000,2999,2000,2999,1000,1999,1000,1999,curry,https://tabelog.com/hokkaido/A0101/A010301/1000163/,https://tabelog.com/en/hokkaido/A0101/A010301/1000163/,北海道札幌市白石区本郷通8丁目南6-2,43.0410158,141.4135759,北海道,8 Minami-6-2 Hongodori Shiroishi-ku Sapporo Hokkaido,Hokkaido,http://www.magicspice.net/
00000057,か～るま～る,Karumaru,3.60,95,1000,1999,1000,1999,1000,1999,1000,1999,curry,https://tabelog.com/hokkaido/A0101/A010301/1066208/,https://tabelog.com/en/hokkaido/A0101/A010301/1066208/,北海道札幌市白石区北郷3条4-11-1 田畑ビル 1F,43.0582118,141.4157104,北海道,4-chome-11-1 Kitago 3 Jo Shiroishi Ward Sapporo Hokkaido,Hokkaido,
00000058,サッポロスープカレーディップ,Sapporo soup curry dip,3.58,107,1000,1999,2000,2999,1000,1999,1000,1999,curry,https://tabelog.com/hokkaido/A0101/A010201/1055946/,https://tabelog.com/en/hokkaido/A0101/A010201/1055946/,北海道札幌市北区北二十九条西4-2-1 ファミール札幌 110,43.0951033,141.3360397,北海道,Kita 29 Jonishi Kita Ward Sapporo Hokkaido,Hokkaido,http://ssc-dip.com
00000059,村上カレー店・プルプル,PULU2,3.68,334,1000,1999,1000,1999,1000,1999,1000,1999,curry,https://tabelog.com/hokkaido/A0101/A010102/1000476/,https://tabelog.com/en/hokkaido/A0101/A010102/1000476/,北海道札幌市中央区南二条西9 ケンタクビル２９ Ｂ1Ｆ,43.0567463,141.3434838,北海道,Minami 2 Jonishi Chuo Ward Sapporo Hokkaido,Hokkaido,http://www5d.biglobe.ne.jp/~pulu2-cr/
00000060,アジアンスープカリー べす,ajiansu-pukari-besu,3.65,271,1000,1999,1000,1999,1000,1999,1000,1999,curry,https://tabelog.com/hokkaido/A0101/A010301/1049808/,https://tabelog.com/en/hokkaido/A0101/A010301/1049808/,北海道札幌市白石区北郷4条6-5-15,43.0575759,141.4243477,北海道,6-chome-5-15 Kitago 4 Jo Shiroishi-ku Sapporo Hokkaido,Hokkaido,
00000061,カレーの店 マボロシ,Karenomisemaboroshi,3.88,365,1000,1999,1000,1999,1000,1999,1000,1999,curry,https://tabelog.com/kanagawa/A1407/A140701/14040492/,https://tabelog.com/en/kanagawa/A1407/A140701/14040492/,神奈川県相模原市中央区中央3-7-1,35.5715221,139.3712028,神奈川県,Central Chuo Ward Sagamihara Kanagawa,Kanagawa,
00000062,ラマイ 横浜伊勢佐木モール店,RAMAI,3.57,1029,1000,1999,1000,1999,1000,1999,1000,1999,curry,https://tabelog.com/kanagawa/A1401/A140104/14045095/,https://tabelog.com/en/kanagawa/A1401/A140104/14045095/,神奈川県横浜市中区伊勢佐木町1-6-5 亀楽ビル 7F,35.4439224,139.6325175,神奈川県,1-chome-6-5 Isezakicho Naka-ku Yokohama Kanagawa,Kanagawa,http://www.ramai.co.jp/index.html
00000063,札幌カリーぱお,Sapporokaripao,3.58,171,1000,1999,1000,1999,1000,1999,1000,1999,curry,https://tabelog.com/hokkaido/A0101/A010204/1005152/,https://tabelog.com/en/hokkaido/A0101/A010204/1005152/,北海道札幌市西区琴似一条7-3-31,43.07330289999999,141.3004929,北海道,7-chome-3-31 Kotoni 1 Jo Nishi-ku Sapporo Hokkaido,Hokkaido,http://pao-curry.com/
00000064,SOUP CURRY KING セントラル,SOUP CURRY KING,3.67,425,1000,1999,1000,1999,1000,1999,1000,1999,curry,https://tabelog.com/hokkaido/A0101/A010102/1055662/,https://tabelog.com/en/hokkaido/A0101/A010102/1055662/,北海道札幌市中央区南2条西3丁目13-4 カタオカビル B1,43.0581448,141.3535296,北海道,3-chome-13 Minami 3 Jonishi Chuo-ku Sapporo Hokkaido,Hokkaido,https://www.soupcurry-king.shop
00000065,アジャンタ 総本家,Ajantasouhonke,3.62,230,1000,1999,1000,1999,1000,1999,1000,1999,curry,https://tabelog.com/hokkaido/A0101/A010202/1006509/,https://tabelog.com/en/hokkaido/A0101/A010202/1006509/,北海道札幌市東区北23条東20丁目2-18,43.0942247,141.3823196,北海道,20-chome-2-18 Kita 23 Johigashi Higashi-ku Sapporo Hokkaido,Hokkaido,http://www.ajanta.jp/
00000066,ポレポレ,Porepore,3.61,130,1000,1999,1000,1999,1000,1999,1000,1999,curry,https://tabelog.com/hokkaido/A0101/A010301/1002197/,https://tabelog.com/en/hokkaido/A0101/A010301/1002197/,北海道札幌市白石区栄通17丁目1-26,43.02887210000001,141.4270307,北海道,17-chome-1-26 Sakaedori Shiroishi-ku Sapporo Hokkaido,Hokkaido,http://soup-curry-polepole.jimdo.com/
00000067,【カレー専門店】円山教授。,kare-semmontemmaruyamakyouju,3.59,410,1000,1999,1000,1999,1000,1999,1000,1999,curry,https://tabelog.com/hokkaido/A0101/A010105/1054392/,https://tabelog.com/en/hokkaido/A0101/A010105/1054392/,北海道札幌市中央区南4条西21-1-27 第5籐栄ビル,43.0537709,141.3370059,北海道,Minami 4 Jonishi Chuo Ward Sapporo Hokkaido,Hokkaido,https://www.youtube.com/channel/UCqPqDdxArcdJxBiF0wNpuzA
00000068,negombo33,Negombosanjuusan,3.85,420,1000,1999,1000,1999,2000,2999,1000,1999,curry,https://tabelog.com/saitama/A1106/A110601/11015014/,https://tabelog.com/en/saitama/A1106/A110601/11015014/,埼玉県所沢市星の宮1-9-1,35.7874949,139.4614105,埼玉県,1-chome-9-1 Hoshinomiya Tokorozawa Saitama,Saitama,https://twitter.com/yamadanegombo33
00000069,エイト カリィ,E-itou curry,3.62,259,1000,1999,1000,1999,1000,1999,1000,1999,curry,https://tabelog.com/hokkaido/A0101/A010303/1052435/,https://tabelog.com/en/hokkaido/A0101/A010303/1052435/,北海道札幌市豊平区平岸1条2-7-33,43.04116339999999,141.3638283,北海道,2-chome-7-33 Hiragishi 1 Jo Toyohira-ku Sapporo Hokkaido,Hokkaido,
00000070,アジョワン,Ajowan,3.57,276,1000,1999,1000,1999,1000,1999,1000,1999,curry,https://tabelog.com/kanagawa/A1401/A140203/14000168/,https://tabelog.com/en/kanagawa/A1401/A140203/14000168/,神奈川県横浜市都筑区中川中央1-28-21,35.5545353,139.5802253,神奈川県,1-chome-28-21 Nakagawachuo Tsuzuki-ku Yokohama Kanagawa,Kanagawa,
00000071,CURRY CLUB キュイエール,Cuillere,3.63,413,1000,1999,1000,1999,1000,1999,2000,2999,curry,https://tabelog.com/kanagawa/A1404/A140401/14054482/,https://tabelog.com/en/kanagawa/A1404/A140401/14054482/,神奈川県鎌倉市大船1-13-11 岡本ビル 1F,35.3505311,139.5317545,神奈川県,1-chome-13-11 Ōfuna Kamakura Kanagawa,Kanagawa,http://cuillere.club/
00000072,カリーサボイ,Curry SAVoY,3.63,266,1000,1999,1000,1999,1000,1999,1000,1999,curry,https://tabelog.com/hokkaido/A0101/A010101/1060249/,https://tabelog.com/en/hokkaido/A0101/A010101/1060249/,北海道札幌市北区北8条西4 ブランシャールBLD B1F,43.0711637,141.349209,北海道,Kita 8 Jonishi Kita Ward Sapporo Hokkaido,Hokkaido,
00000073,カレー専門店 KEN,kare-semmontenken,3.66,505,0,999,0,999,0,999,0,999,curry,https://tabelog.com/kanagawa/A1401/A140202/14010409/,https://tabelog.com/en/kanagawa/A1401/A140202/14010409/,神奈川県横浜市青葉区つつじが丘10-18,35.5408129,139.5191586,神奈川県,10-18 Tsutsujigaoka Aoba-ku Yokohama Kanagawa,Kanagawa,
00000074,曉,akatsuki,3.65,162,1000,1999,1000,1999,1000,1999,1000,1999,curry,https://tabelog.com/hokkaido/A0101/A010102/1050112/,https://tabelog.com/en/hokkaido/A0101/A010102/1050112/,北海道札幌市中央区南1条西12丁目322-24 2F,43.0569825,141.3396199,北海道,12-chome-322-24 Minami 1 Jonishi Chuo-ku Sapporo Hokkaido,Hokkaido,
00000075,元祖インドカレー 小いけ,gansoindokare-koike,3.63,397,1000,1999,1000,1999,1000,999,1000,999,curry,https://tabelog.com/hokkaido/A0105/A010501/1008130/,https://tabelog.com/en/hokkaido/A0105/A010501/1008130/,北海道函館市宝来町22-4,41.7620478,140.7195952,北海道,22-4 Horaicho Hakodate Hokkaido,Hokkaido,https://www.ganso-koike.com/
00000076,メディスンマン,MEDICINEMAN,3.80,676,1000,1999,1000,1999,1000,1999,1000,1999,curry,https://tabelog.com/hokkaido/A0101/A010104/1003072/,https://tabelog.com/en/hokkaido/A0101/A010104/1003072/,北海道札幌市中央区南十二条西10-1-18 グッドビル　１Ｆ,43.0443671,141.3435963,北海道,10-chome-1-18 Minami 12 Jonishi Chuo-ku Sapporo Hokkaido,Hokkaido,
00000077,札幌スープカレー専門店エスパーイトウ 八軒総本店,sapporosu-pukare-semmontenesupa-itou,3.60,272,1000,1999,1000,1999,1000,1999,1000,1999,curry,https://tabelog.com/hokkaido/A0101/A010204/1009667/,https://tabelog.com/en/hokkaido/A0101/A010204/1009667/,北海道札幌市西区八軒5条西1-2-32 パレスチャギヒラ 1F,43.0873366,141.3141915,北海道,Hachiken 5 Jonishi Nishi Ward Sapporo Hokkaido,Hokkaido,https://www.esper-ito.com/
00000078,キャラウェイ,Kyarawei,3.59,248,1000,1999,1000,1999,1000,1999,1000,1999,curry,https://tabelog.com/kanagawa/A1404/A140407/14004751/,https://tabelog.com/en/kanagawa/A1404/A140407/14004751/,神奈川県平塚市錦町1-16,35.32769030000001,139.3453482,神奈川県,1-16 Nishikicho Hiratsuka Kanagawa,Kanagawa,
00000079,欧風カリー ドモン,Oufuukari domon,3.61,226,1000,999,1000,999,1000,1999,1000,1999,curry,https://tabelog.com/hokkaido/A0101/A010303/1060608/,https://tabelog.com/en/hokkaido/A0101/A010303/1060608/,北海道札幌市豊平区平岸3条3-1-28,43.0397931,141.370171,北海道,3-chome-1-28 Hiragishi 3 Jo Toyohira-ku Sapporo Hokkaido,Hokkaido,https://domonfamilia.com/
00000080,キャラウェイ,Kyarawei,3.60,948,1000,999,1000,999,1000,999,1000,999,curry,https://tabelog.com/kanagawa/A1404/A140402/14000589/,https://tabelog.com/en/kanagawa/A1404/A140402/14000589/,神奈川県鎌倉市小町2-12-20,35.3218981,139.5532797,神奈川県,2-chome-12-20 Komachi Kamakura Kanagawa,Kanagawa,http://aquadina.com/kamakura/spot/115/
00000081,アジア金星堂,Ajiakinseidou,3.57,134,1000,999,1000,1999,1000,1999,1000,1999,curry,https://tabelog.com/hokkaido/A0104/A010401/1001167/,https://tabelog.com/en/hokkaido/A0104/A010401/1001167/,北海道旭川市東五条11-2-1,43.8184389,142.4380325,北海道,11 Chome-2-1 Higashi 5 Jo Asahikawa Hokkaido,Hokkaido,
00000082,スパイスカレー モクロミ,spice curry mokuromi,3.87,277,1000,1999,1000,1999,1000,1999,1000,1999,curry,https://tabelog.com/saitama/A1102/A110203/11045458/,https://tabelog.com/en/saitama/A1102/A110203/11045458/,埼玉県越谷市千間台西5-2-30 2F,35.9325025,139.7662462,埼玉県,5-chome-2-30 Sengendainishi Koshigaya Saitama,Saitama,
00000083,gii,Gi,3.58,389,1000,1999,1000,1999,1000,1999,1000,1999,curry,https://tabelog.com/saitama/A1101/A110103/11003352/,https://tabelog.com/en/saitama/A1101/A110103/11003352/,埼玉県さいたま市見沼区大和田町1-1527-1,35.9261208,139.653681,埼玉県,1-chome-1527-1 Ōwadacho Minuma-ku Saitama,Saitama,
00000084,カリー ザイオン,CURRY ZION,3.55,109,1000,1999,1000,1999,1000,1999,1000,1999,curry,https://tabelog.com/hokkaido/A0109/A010905/1001173/,https://tabelog.com/en/hokkaido/A0109/A010905/1001173/,北海道留萌市花園町1-4-21,43.9370938,141.6503283,北海道,1-chome-4-21 Hanazonocho Rumoi Hokkaido,Hokkaido,
00000085,ベンベラ・ネットワークカンパニー,Bem Bera network company,3.69,380,1000,1999,1000,1999,1000,1999,1000,1999,curry,https://tabelog.com/hokkaido/A0101/A010102/1000587/,https://tabelog.com/en/hokkaido/A0101/A010102/1000587/,北海道札幌市中央区南二条西7丁目 エムズスペース 1F,43.0555511,141.336569,北海道,Hokkaido Sapporo Chuo Ward 中央区南２条西７丁目２番地,Hokkaido,
00000086,ひげ男爵,Higedanshaku,3.68,491,1000,1999,1000,1999,1000,1999,1000,1999,curry,https://tabelog.com/hokkaido/A0101/A010102/1005374/,https://tabelog.com/en/hokkaido/A0101/A010102/1005374/,北海道札幌市中央区北一条東2-5-12 ビーンズコート 1Ｆ,43.0634667,141.3585936,北海道,Kita 1 Johigashi Chuo Ward Sapporo Hokkaido,Hokkaido,
00000087,クロック,Kurokku,3.61,537,1000,1999,1000,1999,1000,1999,1000,1999,curry,https://tabelog.com/hokkaido/A0101/A010105/1000162/,https://tabelog.com/en/hokkaido/A0101/A010105/1000162/,北海道札幌市中央区円山西町9-2-25 旭山プラザ　１Ｆ,43.0437089,141.3085961,北海道,9-chome-2-25 Maruyama Nishimachi Chuo-ku Sapporo Hokkaido,Hokkaido,
00000088,ソウルストア,SOUL STORE,3.65,301,1000,1999,1000,1999,1000,1999,1000,1999,curry,https://tabelog.com/hokkaido/A0101/A010103/1058838/,https://tabelog.com/en/hokkaido/A0101/A010103/1058838/,北海道札幌市中央区南3条西7-3-2 F-DRESS 7 BLD 2F,43.055242,141.340692,北海道,Minami 3 Jonishi Chuo Ward Sapporo Hokkaido,Hokkaido,https://soulstore.info/
00000089,スープカレー店 34,THIRTY FOUR,3.63,141,1000,999,1000,1999,1000,1999,1000,1999,curry,https://tabelog.com/hokkaido/A0101/A010303/1056693/,https://tabelog.com/en/hokkaido/A0101/A010303/1056693/,北海道札幌市豊平区平岸2条3-2-20,43.04018869999999,141.3698241,北海道,3-chome-2-20 Hiragishi 2 Jo Toyohira-ku Sapporo Hokkaido,Hokkaido,https://soupcurry34.com/
00000090,kanakoのスープカレー屋さん 札幌大通店,Kanakonosupukareyasan,3.64,333,1000,999,1000,1999,1000,1999,1000,1999,curry,https://tabelog.com/hokkaido/A0101/A010102/1026119/,https://tabelog.com/en/hokkaido/A0101/A010102/1026119/,北海道札幌市中央区南一条西1-2-2 大沢ビル １Ｆ,43.0600282,141.352305,北海道,Minami 1 Jonishi Chuo Ward Sapporo Hokkaido,Hokkaido,http://www.kanako-curry.jp/
00000091,アルペンジロー 本店,Arupenjiro,3.71,1203,1000,1999,2000,2999,1000,1999,2000,2999,curry,https://tabelog.com/kanagawa/A1401/A140306/14000553/,https://tabelog.com/en/kanagawa/A1401/A140306/14000553/,神奈川県横浜市中区弥生町3-26,35.4396109,139.6286192,神奈川県,3-chome-26 Yayoicho Naka-ku Yokohama Kanagawa,Kanagawa,http://alpinjiro.jp/
00000092,ルッカパイパイ,LOOK-Ka PyPy,3.62,154,1000,1999,2000,2999,1000,1999,1000,1999,curry,https://tabelog.com/hokkaido/A0101/A010303/1000683/,https://tabelog.com/en/hokkaido/A0101/A010303/1000683/,北海道札幌市豊平区平岸三条6-6-20,43.0359103,141.3702634,北海道,6-chome-6-20 Hiragishi 3 Jo Toyohira-ku Sapporo Hokkaido,Hokkaido,
00000093,スープカレー トムトムキキル,soup curry tom tom kikir,3.64,201,1000,1999,2000,2999,1000,1999,1000,1999,curry,https://tabelog.com/hokkaido/A0101/A010304/1037079/,https://tabelog.com/en/hokkaido/A0101/A010304/1037079/,北海道札幌市清田区清田三条2-14-15,42.9987445,141.4315001,北海道,2-chome-14-15 Kiyota 3 Jo Kiyota-ku Sapporo Hokkaido,Hokkaido,
00000094,アジャンタインドカリ店,Ajantaindokariten,3.60,77,1000,1999,2000,2999,1000,1999,1000,1999,curry,https://tabelog.com/hokkaido/A0101/A010104/1055967/,https://tabelog.com/en/hokkaido/A0101/A010104/1055967/,北海道札幌市中央区南29条西10丁目6-5,43.0211858,141.3465095,北海道,10-chome-6-5 Minami 29 Jonishi Chuo-ku Sapporo Hokkaido,Hokkaido,
00000095,カレーハウス チリチリ,Karehausu chirichiri,3.63,182,1000,1999,2000,2999,1000,1999,1000,1999,curry,https://tabelog.com/saitama/A1102/A110202/11052130/,https://tabelog.com/en/saitama/A1102/A110202/11052130/,埼玉県戸田市本町4-11-19,35.8072247,139.6781966,埼玉県,4-chome-11-19 Honcho Toda Saitama,Saitama,http://チリチリ.com
00000096,gopのアナグラ,Goppunoanagura,3.66,241,1000,1999,2000,2999,1000,1999,1000,1999,curry,https://tabelog.com/hokkaido/A0101/A010204/1000635/,https://tabelog.com/en/hokkaido/A0101/A010204/1000635/,北海道札幌市西区山の手三条6-1-17,43.0684447,141.2952681,北海道,6-chome-1-17 Yamanote 3 Jo Nishi-ku Sapporo Hokkaido,Hokkaido,http://gop-soupcurry.com/
00000097,Spice&mill,Spice&mill,3.66,299,1000,1999,1000,1999,1000,1999,1000,1999,curry,https://tabelog.com/hokkaido/A0101/A010301/1050715/,https://tabelog.com/en/hokkaido/A0101/A010301/1050715/,北海道札幌市白石区本通11丁目北2番1号,43.04247609999999,141.4233956,北海道,11 Kita-2-1 Hondori Shiroishi-ku Sapporo Hokkaido,Hokkaido,http://spice-and-mill.com
00000098,ターラ,Spice Bar TARA,3.63,186,1000,1999,3000,3999,1000,999,2000,2999,curry,https://tabelog.com/hokkaido/A0101/A010102/1001916/,https://tabelog.com/en/hokkaido/A0101/A010102/1001916/,北海道札幌市中央区南一条西4 日本旅行ビル　Ｂ１Ｆ,43.0591405,141.3514987,北海道,Minami 1 Jonishi Chuo Ward Sapporo Hokkaido,Hokkaido,https://spicebartara.gorp.jp/
00000099,スパイス・ツリー,spice tree,3.68,386,1000,1999,3000,3999,2000,2999,1000,1999,curry,https://tabelog.com/kanagawa/A1406/A140602/14053565/,https://tabelog.com/en/kanagawa/A1406/A140602/14053565/,神奈川県逗子市逗子7-6-25,35.2968213,139.5751599,神奈川県,Zushi Kanagawa,Kanagawa,http://www.spicetree0316.blogspot.jp/
00000100,松本メーヤウ 信大前店,matsumotome-yau,3.56,162,1000,999,1000,999,1000,1999,1000,1999,curry,https://tabelog.com/nagano/A2002/A200201/20000053/,https://tabelog.com/en/nagano/A2002/A200201/20000053/,長野県松本市桐2-1-25,36.25197050000001,137.9763956,長野県,Kiri Matsumoto Nagano,Nagano,
