store_id,store_name,store_name_english,score,review_cnt,tabelog_lunch_budget_min,tabelog_lunch_budget_max,tabelog_dinner_budget_min,tabelog_dinner_budget_max,customer_lunch_budget_min,customer_lunch_budget_max,customer_dinner_budget_min,customer_dinner_budget_max,genre,url,url_english,address,latitude,longitude,prefecture,address_english,prefecture_english,website
00000001,平岡珈琲店,Hiraokakohiten,3.70,461,,,,,,,,,kissaten,https://tabelog.com/osaka/A2701/A270106/27000071/,https://tabelog.com/en/osaka/A2701/A270106/27000071/,大阪府大阪市中央区瓦町3-6-11,34.6859442,135.5014639,大阪府,3-chome-6-11 Kawaramachi Chuo-ku Osaka,Osaka,https://www.cafe-hiraoka.jp/
00000002,喫茶葦島,Kissaashijima,3.72,563,1000,1999,1000,1999,1000,1999,1000,1999,kissaten,https://tabelog.com/kyoto/A2601/A260201/26015997/,https://tabelog.com/en/kyoto/A2601/A260201/26015997/,京都府京都市中京区三条通河原町東入大黒町37 文明堂ビル 5Ｆ,35.0086631,135.7693126,京都府,37 Daikokucho Nakagyo-ku Kyoto,Kyoto,https://ashijimacoffee.com/
00000003,喫茶 マドラグ,Kissamadoragu,3.70,621,1000,1999,1000,1999,1000,1999,1000,1999,kissaten,https://tabelog.com/kyoto/A2601/A260202/26019438/,https://tabelog.com/en/kyoto/A2601/A260202/26019438/,京都府京都市中京区押小路通西洞院東入ル北側,35.0122587,135.755139,京都府,Kyoto Nakagyo Ward 西洞院東入ル北側上松屋町７０６−５,Kyoto,http://madrague.info/index.html
00000004,シビタス,CIVITAS,3.69,645,1000,1999,1000,1999,1000,1999,1000,1999,kissaten,https://tabelog.com/tokyo/A1315/A131503/13045798/,https://tabelog.com/en/tokyo/A1315/A131503/13045798/,東京都大田区西蒲田7-69-1 東急プラザ蒲田 4F,35.5618681,139.7153525,東京都,7-chome-69-1 Nishikamata Ota City Tokyo-to,Tokyo,
00000005,BUCYO COFFEE,bucho-ko-hi-,3.69,999,1000,1999,1000,1999,1000,1999,1000,1999,kissaten,https://tabelog.com/aichi/A2301/A230101/23007465/,https://tabelog.com/en/aichi/A2301/A230101/23007465/,愛知県名古屋市中村区名駅南1-10-9 山善ビル1F,35.166093,136.8905859,愛知県,1-chome-10-9 Meiekiminami Nakamura Ward Nagoya Aichi,Aichi,https://www.bucyocoffee.com/
00000006,はまの屋パーラー 有楽町店,Hamanoyapara,3.73,1103,1000,1999,1000,1999,1000,1999,1000,1999,kissaten,https://tabelog.com/tokyo/A1301/A130102/13041024/,https://tabelog.com/en/tokyo/A1301/A130102/13041024/,東京都千代田区有楽町1-12-1 新有楽町ビル B1F,35.67556039999999,139.7620932,東京都,1-chome-12-1 Yurakucho Chiyoda City Tokyo-to,Tokyo,http://hamanoya-yurakucho.com/
00000007,トロワ・シャンブル,CAFE TROIS CHAMBRES,3.66,473,,,1000,1999,,,1000,1999,kissaten,https://tabelog.com/tokyo/A1318/A131802/13013091/,https://tabelog.com/en/tokyo/A1318/A131802/13013091/,東京都世田谷区代沢5-36-14 湯浅ビル 2F,35.659252,139.6673117,東京都,5-chome-36-14 Daizawa Setagaya City Tokyo-to,Tokyo,
00000008,高山珈琲,Takayamakohi,3.82,524,1000,1999,1000,1999,1000,1999,1000,1999,kissaten,https://tabelog.com/tokyo/A1310/A131002/13011257/,https://tabelog.com/en/tokyo/A1310/A131002/13011257/,東京都千代田区神田須田町1-12,35.6954338,139.7694633,東京都,1-chome-12 Kanda Sudacho Chiyoda City Tokyo-to,Tokyo,
00000009,ロッジ赤石,Rojjiakaishi,3.66,729,1000,1999,1000,1999,1000,1999,1000,1999,kissaten,https://tabelog.com/tokyo/A1311/A131102/13058004/,https://tabelog.com/en/tokyo/A1311/A131102/13058004/,東京都台東区浅草3-8-4,35.7170134,139.7951158,東京都,3-chome-8-4 Asakusa Taito City Tokyo-to,Tokyo,
00000010,天のや,AMANOYA,3.75,662,1000,1999,3000,3999,1000,1999,2000,2999,kissaten,https://tabelog.com/tokyo/A1307/A130702/13014306/,https://tabelog.com/en/tokyo/A1307/A130702/13014306/,東京都港区麻布十番3-1-9,35.6532659,139.7363565,東京都,Azabujuban Minato City Tokyo,Tokyo,http://amano-ya.jp/
00000011,文明堂茶館 ル・カフェ,Bummeidousakanrukafe,3.67,441,1000,1999,,,1000,1999,,,kissaten,https://tabelog.com/kanagawa/A1401/A140104/14003248/,https://tabelog.com/en/kanagawa/A1401/A140104/14003248/,神奈川県横浜市中区伊勢佐木町1-5-3 文明堂ビル　１Ｆ,35.4449338,139.6332247,神奈川県,1-chome-5-3 Isezakicho Naka-ku Yokohama Kanagawa,Kanagawa,http://yokohama-bunmeido.co.jp/shop
00000012,炭火焼珈琲 蔵,sumibiyakiko-hi-kura,3.66,610,1000,1999,1000,1999,1000,1999,1000,1999,kissaten,https://tabelog.com/tokyo/A1305/A130501/13089625/,https://tabelog.com/en/tokyo/A1305/A130501/13089625/,東京都豊島区西池袋1-39-1,35.7327012,139.709786,東京都,1-chome-39-1 Nishiikebukuro Toshima City Tokyo-to,Tokyo,
00000013,モトマチ喫茶,Motomachikissa,3.64,401,,,,,,,,,kissaten,https://tabelog.com/hyogo/A2801/A280102/28024154/,https://tabelog.com/en/hyogo/A2801/A280102/28024154/,兵庫県神戸市中央区北長狭通3-9-7,34.6917592,135.1879416,兵庫県,3-chome-9-7 Kitanagasadori Chuo-ku Kobe Hyogo,Hyogo,
00000014,ヘッケルン,hekkerun,3.70,701,1000,1999,,,1000,1999,,,kissaten,https://tabelog.com/tokyo/A1308/A130802/13057178/,https://tabelog.com/en/tokyo/A1308/A130802/13057178/,東京都港区西新橋1-20-11 安藤ビル1S,35.6678028,139.7521611,東京都,1-chome-20-11 Nishishinbashi Minato City Tokyo-to,Tokyo,
00000015,ミロンガ・ヌオーバ,Mironganuoba,3.67,358,1000,1999,,,1000,1999,,,kissaten,https://tabelog.com/tokyo/A1310/A131003/13006552/,https://tabelog.com/en/tokyo/A1310/A131003/13006552/,東京都千代田区神田神保町1-3,35.6954456,139.75824,東京都,Tokyo-to Chiyoda City Kanda Jinbocho ホーム 3,Tokyo,
00000016,トゥジュール デビュテ,TOUJOURS DEBUTER,3.70,452,1000,1999,1000,1999,1000,1999,1000,1999,kissaten,https://tabelog.com/tokyo/A1316/A131603/13059498/,https://tabelog.com/en/tokyo/A1316/A131603/13059498/,東京都品川区東五反田5-27-12 扇寿ビル B1F,35.6270956,139.7233424,東京都,5 Chome-27 Higashigotanda Shinagawa City Tokyo,Tokyo,
00000017,純喫茶 アメリカン,Junkissaamerikan,3.62,1084,1000,1999,1000,1999,1000,1999,1000,1999,kissaten,https://tabelog.com/osaka/A2701/A270202/27005758/,https://tabelog.com/en/osaka/A2701/A270202/27005758/,大阪府大阪市中央区道頓堀1-7-4 株式会社アメリカンビル,34.6683976,135.5028958,大阪府,1-chome-7-4 Dotonbori Chuo-ku Osaka,Osaka,https://www.junkissa-american.com/
00000018,モール&ホソイコーヒーズ,Mole & hosoi coffees,3.69,290,1000,1999,1000,1999,1000,1999,1000,1999,kissaten,https://tabelog.com/osaka/A2701/A270102/27020048/,https://tabelog.com/en/osaka/A2701/A270102/27020048/,大阪府大阪市中央区伏見町3-3-3 芝川ビル B1F,34.6890756,135.5018094,大阪府,3-chome-3-3 Fushimimachi Chuo-ku Osaka,Osaka,http://mole-and-hosoicoffees.com
00000019,草枕,Kusamakura,3.73,487,1000,1999,1000,1999,1000,1999,1000,1999,kissaten,https://tabelog.com/tokyo/A1301/A130103/13043012/,https://tabelog.com/en/tokyo/A1301/A130103/13043012/,東京都港区西新橋1-10-1 日美ビル１階,35.6689797,139.7528598,東京都,1-chome-10-1 Nishishinbashi Minato City Tokyo-to,Tokyo,
00000020,DEN,Den,3.64,589,1000,1999,1000,1999,1000,1999,1000,1999,kissaten,https://tabelog.com/tokyo/A1311/A131104/13041212/,https://tabelog.com/en/tokyo/A1311/A131104/13041212/,東京都台東区根岸3-3-18 メゾン根岸（鶯谷） １Ｆ,35.7221666,139.7814632,東京都,3-chome-3-18 Negishi Taito City Tokyo-to,Tokyo,
00000021,珈琲 まるも,Kohimarumo,3.65,434,1000,1999,1000,1999,1000,1999,1000,1999,kissaten,https://tabelog.com/nagano/A2002/A200201/20000622/,https://tabelog.com/en/nagano/A2002/A200201/20000622/,長野県松本市中央3-3-10,36.2342642,137.9723536,長野県,Central Matsumoto Nagano,Nagano,https://nakamachi.org/shopmember/marumo/
00000022,エレーナ,Erena,3.65,352,1000,1999,1000,1999,1000,1999,1000,1999,kissaten,https://tabelog.com/kanagawa/A1401/A140105/14007970/,https://tabelog.com/en/kanagawa/A1401/A140105/14007970/,神奈川県横浜市中区山手町24,35.435945,139.6449502,神奈川県,24 Yamatecho Naka-ku Yokohama Kanagawa,Kanagawa,http://www.yamate-elena.com
00000023,ショパン,Shopan,3.70,654,,,,,,,,,kissaten,https://tabelog.com/tokyo/A1310/A131002/13011258/,https://tabelog.com/en/tokyo/A1310/A131002/13011258/,東京都千代田区神田須田町1-19-9,35.6968781,139.7688582,東京都,1-chome-19-9 Kanda Sudacho Chiyoda City Tokyo-to,Tokyo,
00000024,六曜社 地下店,Rokuyousha,3.65,396,,,,,,,,,kissaten,https://tabelog.com/kyoto/A2601/A260202/26000159/,https://tabelog.com/en/kyoto/A2601/A260202/26000159/,京都府京都市中京区河原町三条下ル大黒町40 B1F,35.0084116,135.7692186,京都府,Kyoto Nakagyo Ward Daikokucho ４０ 清美ビル,Kyoto,http://aquadina.com/kyoto/spot/3819/
00000025,茶房 天井棧敷,Saboutenjousajiki,3.64,359,1000,1999,,,1000,1999,,,kissaten,https://tabelog.com/oita/A4402/A440201/44000043/,https://tabelog.com/en/oita/A4402/A440201/44000043/,大分県由布市湯布院町川上2633-1 亀の井別荘内,33.265743,131.3674211,大分県,2633-1 Yufuincho Kawakami Yufu Oita,Oita,http://www.kamenoi-bessou.jp/
00000026,築地,Tsukiji,3.64,429,1000,1999,,,1000,1999,,,kissaten,https://tabelog.com/kyoto/A2601/A260201/26001588/,https://tabelog.com/en/kyoto/A2601/A260201/26001588/,京都府京都市中京区米屋町384-2,35.0043527,135.7698565,京都府,384 Komeyacho Nakagyo-ku Kyoto,Kyoto,http://aquadina.com/kyoto/spot/3808/
00000027,アメリカン,Amerikan,3.69,1446,1000,1999,1000,1999,1000,1999,1000,1999,kissaten,https://tabelog.com/tokyo/A1301/A130101/13051375/,https://tabelog.com/en/tokyo/A1301/A130101/13051375/,東京都中央区銀座4丁目11-7,35.6698132,139.7687422,東京都,4-chome-11-7 Ginza Chuo City Tokyo-to,Tokyo,
00000028,タイズ,TIES,3.74,544,1000,1999,1000,1999,1000,1999,1000,1999,kissaten,https://tabelog.com/tokyo/A1310/A131004/13018359/,https://tabelog.com/en/tokyo/A1310/A131004/13018359/,東京都文京区湯島4-1-13 １Ｆ,35.707595,139.7644592,東京都,4-chome-1-13 Yushima Bunkyo City Tokyo-to,Tokyo,
00000029,カフェ・トロワバグ,CAFE TROIS BAGUES,3.71,549,1000,1999,1000,1999,1000,1999,1000,1999,kissaten,https://tabelog.com/tokyo/A1310/A131003/13011637/,https://tabelog.com/en/tokyo/A1310/A131003/13011637/,東京都千代田区神田神保町1-12-1 富田ビル B1F,35.696373,139.75825,東京都,1-chome-12-1 Kanda Jinbocho Chiyoda City Tokyo-to,Tokyo,https://troisbagues.com
00000030,ローヤル珈琲店 本店,Royarukohiten,3.70,743,,,1000,1999,,,1000,1999,kissaten,https://tabelog.com/tokyo/A1311/A131102/13008614/,https://tabelog.com/en/tokyo/A1311/A131102/13008614/,東京都台東区浅草1-39-7,35.7127682,139.7944566,東京都,1-chome-39-7 Asakusa Taito City Tokyo-to,Tokyo,
00000031,YOU,Yu,3.70,2419,1000,1999,1000,1999,1000,1999,1000,1999,kissaten,https://tabelog.com/tokyo/A1301/A130101/13002318/,https://tabelog.com/en/tokyo/A1301/A130101/13002318/,東京都中央区銀座4-13-17 高野ビル　１F,35.6694533,139.7686723,東京都,4-chome-13-17 Ginza Chuo City Tokyo-to,Tokyo,
00000032,ツェーンコーヒー,Zehn Coffee,3.69,322,1000,1999,1000,1999,1000,1999,1000,1999,kissaten,https://tabelog.com/tokyo/A1311/A131101/13043953/,https://tabelog.com/en/tokyo/A1311/A131101/13043953/,東京都台東区上野1-14-2,35.7066429,139.7701969,東京都,1-chome-14-2 Ueno Taito City Tokyo-to,Tokyo,
00000033,元町サントス,Motomachisantosu,3.64,615,1000,1999,,,1000,1999,,,kissaten,https://tabelog.com/hyogo/A2801/A280102/28001590/,https://tabelog.com/en/hyogo/A2801/A280102/28001590/,兵庫県神戸市中央区元町通2-3-12,34.6884295,135.1874468,兵庫県,2-chome-3-12 Motomachidori Chuo-ku Kobe Hyogo,Hyogo,
00000034,ダンケ 心斎橋,Danke,3.66,417,1000,1999,1000,1999,1000,1999,1000,1999,kissaten,https://tabelog.com/osaka/A2701/A270201/27053278/,https://tabelog.com/en/osaka/A2701/A270201/27053278/,大阪府大阪市中央区心斎橋筋1-2-22 2F,34.6746706,135.5019905,大阪府,1-chome-2-22 Shinsaibashisuji Chuo-ku Osaka,Osaka,http://dankeshinsaibashi.web.fc2.com/
00000035,ミカド珈琲店 日本橋本店,MIKADO,3.68,965,,,,,,,,,kissaten,https://tabelog.com/tokyo/A1302/A130202/13006305/,https://tabelog.com/en/tokyo/A1302/A130202/13006305/,東京都中央区日本橋室町1-6-7,35.6855543,139.7749226,東京都,1-chome-6-7 Nihonbashimuromachi Chuo City Tokyo-to,Tokyo,http://mikado-coffee.com/
00000036,喫茶チロル,Kissachiroru,3.66,470,1000,1999,,,1000,1999,,,kissaten,https://tabelog.com/kyoto/A2601/A260203/26002251/,https://tabelog.com/en/kyoto/A2601/A260203/26002251/,京都府京都市中京区御池通大宮西入ル門前町539-3,35.0112535,135.7474529,京都府,539-3 Monzencho Nakagyo Ward Kyoto,Kyoto,http://tyrol.favy.jp/
00000037,一六珈琲店,Ichirokukohiten,3.67,299,1000,1999,1000,1999,1000,1999,1000,1999,kissaten,https://tabelog.com/tokyo/A1329/A132901/13039610/,https://tabelog.com/en/tokyo/A1329/A132901/13039610/,東京都立川市錦町1-4-19 親松ビル　102号,35.6957995,139.4167303,東京都,1-chome-4-19 Nishikicho Tachikawa Tokyo-to,Tokyo,http://cafe.ichirokuko-hi-ten.com/
00000038,カフェ・アンセーニュ・ダングル 自由が丘店,Kafeansenidanguru,3.69,488,1000,1999,1000,1999,1000,1999,1000,1999,kissaten,https://tabelog.com/tokyo/A1317/A131703/13017724/,https://tabelog.com/en/tokyo/A1317/A131703/13017724/,東京都目黒区自由が丘1-13-6 鳥井ビル　１Ｆ,35.6080706,139.6702221,東京都,1-chome-13-6 Jiyugaoka Meguro City Tokyo-to,Tokyo,
00000039,ニューアストリア,Niasutoria,3.71,894,,,,,,,,,kissaten,https://tabelog.com/osaka/A2706/A270601/27002923/,https://tabelog.com/en/osaka/A2706/A270601/27002923/,大阪府豊中市新千里東町1-3-8 せんちゅうパル　Ｂ１Ｆ,34.80973609999999,135.4949013,大阪府,1-chome-3-8 Shinsenri Higashimachi Toyonaka Osaka,Osaka,https://www.senrichuou.com/shop/%e3%83%8b%e3%83%a5%e3%83%bc%e3%82%a2%e3%82%b9%e3%83%88%e3%83%aa%e3%82%a2/
00000040,カフェ・ド・ランブル,Kafedoramburu,3.75,857,1000,1999,2000,2999,1000,1999,1000,1999,kissaten,https://tabelog.com/tokyo/A1301/A130103/13002564/,https://tabelog.com/en/tokyo/A1301/A130103/13002564/,東京都中央区銀座8-10-15 SBM BLDG 1F,35.667895,139.7623228,東京都,8-chome-10-15 Ginza Chuo City Tokyo-to,Tokyo,http://www.cafedelambre.com/
00000041,前田珈琲 室町本店,Maedakohi,3.60,821,1000,1999,1000,1999,1000,1999,1000,1999,kissaten,https://tabelog.com/kyoto/A2601/A260201/26001559/,https://tabelog.com/en/kyoto/A2601/A260201/26001559/,京都府京都市中京区蛸薬師通烏丸西入橋弁慶町236,35.0062121,135.75929,京都府,236 Hashibenkeicho Nakagyo-ku Kyoto,Kyoto,http://www.maedacoffee.com/
00000042,ゼー六 本町店,Zeroku,3.69,626,,,,,,,,,kissaten,https://tabelog.com/osaka/A2701/A270106/27001820/,https://tabelog.com/en/osaka/A2701/A270106/27001820/,大阪府大阪市中央区本町1-3-22,34.6833482,135.5093405,大阪府,1-chome-3-22 Honmachi Chuo-ku Osaka,Osaka,
00000043,珈琲専門店 トミィ,ko-hi-semmontentomixi,3.63,481,1000,1999,,,1000,1999,,,kissaten,https://tabelog.com/tokyo/A1312/A131201/13007983/,https://tabelog.com/en/tokyo/A1312/A131201/13007983/,東京都墨田区錦糸2-10-7,35.6989028,139.8125282,東京都,2-chome-10-7 Kinshi Sumida City Tokyo-to,Tokyo,
00000044,珈琲美美,Kohibimi,3.67,281,1000,1999,,,1000,1999,,,kissaten,https://tabelog.com/fukuoka/A4001/A400105/40000004/,https://tabelog.com/en/fukuoka/A4001/A400105/40000004/,福岡県福岡市中央区赤坂2-6-27,33.5827463,130.3827907,福岡県,2-chome-6-27 Akasaka Chuo-ku Fukuoka,Fukuoka,http://www.cafebimi.com/
00000045,茶亭 羽當,Chateihatou,3.74,1306,1000,1999,1000,1999,1000,1999,1000,1999,kissaten,https://tabelog.com/tokyo/A1303/A130301/13001169/,https://tabelog.com/en/tokyo/A1303/A130301/13001169/,東京都渋谷区渋谷1-15-19 二葉ビル 2F,35.6603663,139.7026936,東京都,1-chome-15-19 Shibuya Shibuya City Tokyo-to,Tokyo,
00000046,茶房 武蔵野文庫,Saboumusashinobunko,3.70,634,1000,1999,1000,1999,1000,1999,1000,1999,kissaten,https://tabelog.com/tokyo/A1320/A132001/13005823/,https://tabelog.com/en/tokyo/A1320/A132001/13005823/,東京都武蔵野市吉祥寺本町2-13-4,35.705167,139.5769611,東京都,2-chome-13-4 Kichijoji Honcho Musashino Tokyo-to,Tokyo,https://sabo-musashinobunko.jimdofree.com/
00000047,ワンモア,Wammoa,3.64,355,1000,1999,1000,1999,1000,1999,1000,1999,kissaten,https://tabelog.com/tokyo/A1312/A131202/13002937/,https://tabelog.com/en/tokyo/A1312/A131202/13002937/,東京都江戸川区平井5-22-11,35.7077836,139.8426398,東京都,5-chome-22-11 Hirai Edogawa City Tokyo-to,Tokyo,
00000048,リザルブ珈琲店,Rizarubukohi,3.66,154,,,1000,1999,,,1000,1999,kissaten,https://tabelog.com/osaka/A2706/A270604/27046966/,https://tabelog.com/en/osaka/A2706/A270604/27046966/,大阪府高槻市芥川町3-19-3,34.8519927,135.6111223,大阪府,3-chome-19-3 Akutagawacho Takatsuki Osaka,Osaka,https://cobb.exblog.jp/
00000049,古瀬戸珈琲店,Kosetokohiten,3.71,598,1000,1999,1000,1999,1000,1999,1000,1999,kissaten,https://tabelog.com/tokyo/A1310/A131002/13006272/,https://tabelog.com/en/tokyo/A1310/A131002/13006272/,東京都千代田区神田小川町3-10 江本ビル 2F,35.6961357,139.7613246,東京都,3-chome-10 Kanda Ogawamachi Chiyoda City Tokyo-to,Tokyo,
00000050,コーヒーハウス かこ 花車本店,Coffee house KAKO,3.72,1029,1000,1999,1000,1999,1000,1999,1000,1999,kissaten,https://tabelog.com/aichi/A2301/A230101/23005509/,https://tabelog.com/en/aichi/A2301/A230101/23005509/,愛知県名古屋市中村区名駅5-16-17 花車ビル南館　１Ｆ,35.1703062,136.8900835,愛知県,5-chome-16-17 Meieki Nakamura Ward Nagoya Aichi,Aichi,
00000051,さぼうる,Sabouru,3.68,1096,1000,1999,1000,1999,1000,1999,1000,1999,kissaten,https://tabelog.com/tokyo/A1310/A131003/13000609/,https://tabelog.com/en/tokyo/A1310/A131003/13000609/,東京都千代田区神田神保町1-11,35.6956367,139.760551,東京都,1-chome-11 Kanda Jinbocho Chiyoda City Tokyo-to,Tokyo,https://sabor-jimbocho.business.site/
00000052,炭火焙煎珈琲・凛,Sumibibaisenkohirin,3.69,765,1000,1999,1000,1999,1000,1999,1000,1999,kissaten,https://tabelog.com/tokyo/A1301/A130101/13004102/,https://tabelog.com/en/tokyo/A1301/A130101/13004102/,東京都中央区銀座4-4-5 銀座ハタビル　２Ｆ,35.6721014,139.7650083,東京都,4-chome-4-5 Ginza Chuo City Tokyo-to,Tokyo,http://coffee-rin.com/
00000053,ヴェルデ,Verude,3.69,557,1000,1999,1000,1999,1000,1999,1000,1999,kissaten,https://tabelog.com/tokyo/A1303/A130302/13050095/,https://tabelog.com/en/tokyo/A1303/A130302/13050095/,東京都渋谷区恵比寿西1-20-8 コンド恵比寿 1F,35.646449,139.7065295,東京都,1-chome-20-8 Ebisunishi Shibuya City Tokyo-to,Tokyo,
00000054,カフェ香咲,Cafe Casa,3.67,613,1000,1999,1000,1999,1000,1999,1000,1999,kissaten,https://tabelog.com/tokyo/A1306/A130601/13001955/,https://tabelog.com/en/tokyo/A1306/A130601/13001955/,東京都渋谷区神宮前3-41-1,35.6711565,139.7136293,東京都,3-chome-41-1 Jingumae Shibuya City Tokyo-to,Tokyo,https://www.cafecasaaoyama.com/
00000055,珈琲舎 蔵,Kohishakura,3.71,452,1000,1999,1000,1999,1000,1999,1000,1999,kissaten,https://tabelog.com/tokyo/A1310/A131003/13011597/,https://tabelog.com/en/tokyo/A1310/A131003/13011597/,東京都千代田区神田神保町1-26 矢崎ビル ２Ｆ,35.6972483,139.7591634,東京都,1-chome-26 Kanda Jinbocho Chiyoda City Tokyo-to,Tokyo,
00000056,珈琲 天国,Kohitengoku,3.63,638,1000,1999,1000,1999,1000,1999,1000,1999,kissaten,https://tabelog.com/tokyo/A1311/A131102/13025425/,https://tabelog.com/en/tokyo/A1311/A131102/13025425/,東京都台東区浅草1-41-9,35.7130367,139.794097,東京都,1-chome-41-9 Asakusa Taito City Tokyo-to,Tokyo,
00000057,ビクトリー,Bikutori,3.68,320,1000,1999,1000,1999,1000,1999,1000,1999,kissaten,https://tabelog.com/osaka/A2701/A270102/27000271/,https://tabelog.com/en/osaka/A2701/A270102/27000271/,大阪府大阪市西区江戸堀1-23-31,34.6896219,135.4933956,大阪府,1-chome-23-31 Edobori Nishi-ku Osaka,Osaka,
00000058,生きている珈琲,Ikiteirukohi,3.67,407,1000,1999,,,1000,1999,,,kissaten,https://tabelog.com/kyoto/A2601/A260201/26017295/,https://tabelog.com/en/kyoto/A2601/A260201/26017295/,京都府京都市下京区四条通麩屋町西入 立売東町みのや四条ビルB１F,35.0039621,135.765168,京都府,京都府京都市下京区立売東町 四条通麩屋町西入,Kyoto,http://ikiteiru.com
00000059,エビアンコーヒー,Ebiankohi,3.64,467,1000,1999,,,1000,1999,,,kissaten,https://tabelog.com/hyogo/A2801/A280102/28000650/,https://tabelog.com/en/hyogo/A2801/A280102/28000650/,兵庫県神戸市中央区元町通1-7-2,34.6891711,135.1893213,兵庫県,1-chome-7-2 Motomachidori Chuo-ku Kobe Hyogo,Hyogo,http://www.evian-coffee.com/
00000060,自家焙煎珈琲 凡,Jikabaisenkohibon,3.70,709,1000,1999,2000,2999,1000,1999,2000,2999,kissaten,https://tabelog.com/tokyo/A1304/A130401/13000735/,https://tabelog.com/en/tokyo/A1304/A130401/13000735/,東京都新宿区新宿3-23-1 都里一ビル B1F,35.6927753,139.7007701,東京都,3 Chome-23-1 Shinjuku Shinjuku City Tokyo,Tokyo,https://cafebon.crayonsite.net/
00000061,ばん珈琲店,Bankohiten,3.68,193,1000,1999,2000,2999,1000,1999,2000,2999,kissaten,https://tabelog.com/osaka/A2701/A270107/27037023/,https://tabelog.com/en/osaka/A2701/A270107/27037023/,大阪府大阪市中央区森之宮中央1-16-21,34.6812173,135.5322808,大阪府,Morinomiyachuo Chuo Ward Osaka,Osaka,http://ban-coffee-ten.blog.so-net.ne.jp/
00000062,珈琲専門店 エース,Kohisemmontenesu,3.64,714,,,2000,2999,,,2000,2999,kissaten,https://tabelog.com/tokyo/A1310/A131002/13020976/,https://tabelog.com/en/tokyo/A1310/A131002/13020976/,東京都千代田区内神田3-10-6,35.6914923,139.769156,東京都,Uchikanda Chiyoda City Tokyo,Tokyo,
00000063,ピノキオ,Pinokio,3.65,659,1000,1999,2000,2999,1000,1999,2000,2999,kissaten,https://tabelog.com/tokyo/A1322/A132203/13088456/,https://tabelog.com/en/tokyo/A1322/A132203/13088456/,東京都板橋区大山金井町16-8,35.74469759999999,139.7070532,東京都,16-8 Ōyamakanaicho Itabashi City Tokyo-to,Tokyo,
00000064,カフェ・鈴木,Kafesuzuki,3.71,271,1000,1999,,,1000,1999,,,kissaten,https://tabelog.com/kanagawa/A1408/A140802/14004103/,https://tabelog.com/en/kanagawa/A1408/A140802/14004103/,神奈川県厚木市中町3-5-6 ロックヒルズ　１Ｆ,35.4406167,139.3627567,神奈川県,3-chome-5-6 Nakacho Atsugi Kanagawa,Kanagawa,http://www.cafe-suzuki.com/
00000065,スマート珈琲店,Smart Coffee,3.73,1253,1000,1999,1000,1999,1000,1999,1000,1999,kissaten,https://tabelog.com/kyoto/A2601/A260201/26000647/,https://tabelog.com/en/kyoto/A2601/A260201/26000647/,京都府京都市中京区寺町通三条上ル天性寺前町537,35.009502,135.7669536,京都府,537 Tenshojimaecho Nakagyo Ward Kyoto,Kyoto,http://www.smartcoffee.jp/
00000066,イワタコーヒー店,Iwatakohiten,3.66,1008,1000,1999,1000,1999,1000,1999,1000,1999,kissaten,https://tabelog.com/kanagawa/A1404/A140402/14002091/,https://tabelog.com/en/kanagawa/A1404/A140402/14002091/,神奈川県鎌倉市小町1-5-7,35.3194879,139.5515402,神奈川県,1-chome-5-7 Komachi Kamakura Kanagawa,Kanagawa,http://iwatacoffee.sakura.ne.jp/index.html
00000067,ラドリオ,LADRIO,3.68,630,1000,1999,1000,1999,1000,1999,1000,1999,kissaten,https://tabelog.com/tokyo/A1310/A131003/13006555/,https://tabelog.com/en/tokyo/A1310/A131003/13006555/,東京都千代田区神田神保町1-3,35.6954456,139.75824,東京都,Tokyo-to Chiyoda City Kanda Jinbocho ホーム 3,Tokyo,
00000068,神田伯剌西爾,Kandaburajiru,3.70,684,,,,,,,,,kissaten,https://tabelog.com/tokyo/A1310/A131003/13011590/,https://tabelog.com/en/tokyo/A1310/A131003/13011590/,東京都千代田区神田神保町1-7 小宮山ビル Ｂ1Ｆ,35.695723,139.7595576,東京都,1-chome-7 Kanda Jinbocho Chiyoda City Tokyo-to,Tokyo,https://k-brazil.jp/
00000069,さぼうる 2,Sabourutsu,3.49,1186,1000,1999,1000,1999,1000,1999,1000,1999,kissaten,https://tabelog.com/tokyo/A1310/A131003/13011604/,https://tabelog.com/en/tokyo/A1310/A131003/13011604/,東京都千代田区神田神保町1-11,35.6956367,139.760551,東京都,1-chome-11 Kanda Jinbocho Chiyoda City Tokyo-to,Tokyo,https://sabor-jimbocho.business.site/
00000070,アラビヤコーヒー,ARABIYA,3.65,552,1000,1999,1000,1999,1000,1999,1000,1999,kissaten,https://tabelog.com/osaka/A2701/A270202/27001511/,https://tabelog.com/en/osaka/A2701/A270202/27001511/,大阪府大阪市中央区難波1-6-7,34.6679628,135.5018555,大阪府,1-chome-6-7 Nanba Chuo-ku Osaka,Osaka,http://arabiyacoffee.com/
00000071,トリコロール 本店,Torikororu,3.73,1168,1000,1999,1000,1999,1000,1999,1000,1999,kissaten,https://tabelog.com/tokyo/A1301/A130101/13007761/,https://tabelog.com/en/tokyo/A1301/A130101/13007761/,東京都中央区銀座5-9-17,35.6702343,139.7651975,東京都,5-chome-9-17 Ginza Chuo City Tokyo-to,Tokyo,http://www.tricolore.co.jp/
00000072,高木珈琲店 高辻本店,takagiko-hi-ten,3.65,461,1000,1999,1000,1999,1000,1999,1000,1999,kissaten,https://tabelog.com/kyoto/A2601/A260201/26005195/,https://tabelog.com/en/kyoto/A2601/A260201/26005195/,京都府京都市下京区高辻通室町東入ル骨屋町175,35.0072467,135.7587624,京都府,Kyoto Shimogyo Ward 室町東入ル骨屋町175,Kyoto,http://takagi-coffee.jugem.jp/
00000073,ル プルミエ カフェ in ビギ・ファースト,Le Premier Cafe,3.69,482,1000,1999,1000,1999,1000,1999,1000,1999,kissaten,https://tabelog.com/osaka/A2701/A270201/27004529/,https://tabelog.com/en/osaka/A2701/A270201/27004529/,大阪府大阪市中央区心斎橋筋1-3-28 ビギ1stビル　3F,34.67423170000001,135.5017542,大阪府,1-chome-3-28 Shinsaibashisuji Chuo-ku Osaka,Osaka,https://www.le-premier-cafe.com/?tid=2&mode=f2
00000074,自家焙煎珈琲工房 カフェ バーンホーフ 三番街店,CAFE BAHNHOF ,3.67,476,1000,1999,1000,1999,1000,1999,1000,1999,kissaten,https://tabelog.com/osaka/A2701/A270101/27011966/,https://tabelog.com/en/osaka/A2701/A270101/27011966/,大阪府大阪市北区芝田1-1-3 阪急三番街 B2F,34.70596680000001,135.4984748,大阪府,1-chome-1-3 Shibata Kita-ku Osaka,Osaka,http://bahnhof.jp/
00000075,コヒア アラビカ,Coffee Arabica,3.68,381,1000,1999,1000,1999,1000,1999,1000,1999,kissaten,https://tabelog.com/tokyo/A1308/A130801/13013444/,https://tabelog.com/en/tokyo/A1308/A130801/13013444/,東京都港区赤坂3-18-2 Ｂ１Ｆ,35.6755052,139.7366024,東京都,3-chome-18-2 Akasaka Minato City Tokyo-to,Tokyo,
00000076,喫茶 いち,kissaichi,3.64,285,1000,1999,1000,1999,1000,1999,1000,1999,kissaten,https://tabelog.com/osaka/A2706/A270601/27012020/,https://tabelog.com/en/osaka/A2706/A270601/27012020/,大阪府豊中市新千里東町1-3 せんちゅうパル B1F,34.80973609999999,135.4949013,大阪府,1 Chome-3 Shinsenri Higashimachi Toyonaka Osaka,Osaka,
00000077,馬車道十番館,Bashamichijuubankan,3.59,759,1000,1999,8000,9999,1000,1999,1000,1999,kissaten,https://tabelog.com/kanagawa/A1401/A140104/14000115/,https://tabelog.com/en/kanagawa/A1401/A140104/14000115/,神奈川県横浜市中区常盤町5-67 1F,35.447381,139.6348683,神奈川県,5-chome-67 Tokiwacho Naka-ku Yokohama Kanagawa,Kanagawa,http://www.yokohama-jyubankan.co.jp
00000078,みやざわ,Miyazawa,3.67,570,1000,1999,8000,9999,1000,1999,2000,2999,kissaten,https://tabelog.com/tokyo/A1301/A130103/13024142/,https://tabelog.com/en/tokyo/A1301/A130103/13024142/,東京都中央区銀座8-5-25 西銀座会館　１Ｆ,35.6692893,139.7605659,東京都,8-chome-5-25 Ginza Chuo City Tokyo-to,Tokyo,
00000079,ダフニ,Daphne,3.68,235,1000,1999,8000,9999,1000,1999,2000,2999,kissaten,https://tabelog.com/tokyo/A1314/A131402/13056306/,https://tabelog.com/en/tokyo/A1314/A131402/13056306/,東京都港区芝5-10-11 １階,35.6490389,139.7460729,東京都,5-chome-10-11 Shiba Minato City Tokyo-to,Tokyo,http://www.daphne-coffee.jp/
00000080,珈琲道場 侍,Kohidoujousamurai,3.68,558,1000,1999,8000,9999,1000,1999,1000,1999,kissaten,https://tabelog.com/tokyo/A1312/A131202/13018018/,https://tabelog.com/en/tokyo/A1312/A131202/13018018/,東京都江東区亀戸6-57-22 サンポービル 2F,35.697064,139.8285565,東京都,6-chome-57-22 Kameido Koto City Tokyo-to,Tokyo,http://www.samurai-cafe.jp/
00000081,胡桃堂喫茶店,Kurumidoukissaten,3.68,376,1000,1999,1000,1999,1000,1999,1000,1999,kissaten,https://tabelog.com/tokyo/A1325/A132502/13206891/,https://tabelog.com/en/tokyo/A1325/A132502/13206891/,東京都国分寺市本町2-17-3,35.7015987,139.48353,東京都,2-chome-17-3 Honcho Kokubunji Tokyo-to,Tokyo,http://kurumido2017.jp/
00000082,Cafe Bach,kafebahha,3.73,649,1000,1999,1000,1999,1000,1999,1000,1999,kissaten,https://tabelog.com/tokyo/A1324/A132401/13003759/,https://tabelog.com/en/tokyo/A1324/A132401/13003759/,東京都台東区日本堤1-23-9,35.7267959,139.8002201,東京都,1-chome-23-9 Nihonzutsumi Taito City Tokyo-to,Tokyo,http://www.bach-kaffee.co.jp/
00000083,サンシャイン,Sanshain,3.66,982,1000,1999,,,1000,1999,,,kissaten,https://tabelog.com/osaka/A2701/A270101/27038064/,https://tabelog.com/en/osaka/A2701/A270101/27038064/,大阪府大阪市北区曽根崎2-11-8 B2F,34.7003859,135.5001156,大阪府,2-chome-11-8 Sonezaki Kita-ku Osaka,Osaka,http://www.kissa-sunshine.jp/
00000084,さえら,Saera,3.67,1121,1000,1999,1000,1999,1000,1999,1000,1999,kissaten,https://tabelog.com/hokkaido/A0101/A010102/1000026/,https://tabelog.com/en/hokkaido/A0101/A010102/1000026/,北海道札幌市中央区大通西2 都心ビル　Ｂ３Ｆ,43.0602457,141.3544724,北海道,2 Chome Odorinishi Chuo Ward Sapporo Hokkaido,Hokkaido,
00000085,十一房珈琲店,Juuichiboukohiten,3.74,762,1000,1999,1000,1999,1000,1999,1000,1999,kissaten,https://tabelog.com/tokyo/A1301/A130101/13007721/,https://tabelog.com/en/tokyo/A1301/A130101/13007721/,東京都中央区銀座2-2-19,35.674814,139.7657571,東京都,2-chome-2-19 Ginza Chuo City Tokyo-to,Tokyo,
00000086,皇琲亭,Kohitei,3.71,1012,1000,1999,1000,1999,1000,1999,1000,1999,kissaten,https://tabelog.com/tokyo/A1305/A130501/13003947/,https://tabelog.com/en/tokyo/A1305/A130501/13003947/,東京都豊島区東池袋1-7-2 東駒ビル　１Ｆ,35.7312712,139.7138955,東京都,1-chome-7-2 Higashiikebukuro Toshima City Tokyo-to,Tokyo,
00000087,珈琲館 紅鹿舎,Kohikambenishika,3.68,1105,1000,1999,1000,1999,1000,1999,1000,1999,kissaten,https://tabelog.com/tokyo/A1301/A130102/13002146/,https://tabelog.com/en/tokyo/A1301/A130102/13002146/,東京都千代田区有楽町1-6-8 松井ビル　１Ｆ,35.6735995,139.7609153,東京都,1-chome-6-8 Yurakucho Chiyoda City Tokyo-to,Tokyo,
00000088,茜屋珈琲店,Akaneyakohiten,3.69,374,1000,1999,1000,1999,1000,1999,1000,1999,kissaten,https://tabelog.com/hyogo/A2801/A280101/28001625/,https://tabelog.com/en/hyogo/A2801/A280101/28001625/,兵庫県神戸市中央区北長狭通1-9-4 コースト岸卯ビル　 2F,34.6926303,135.1916898,兵庫県,1-chome-9-4 Kitanagasadori Chuo-ku Kobe Hyogo,Hyogo,https://akaneyacoffee.shop/
00000089,フランソア喫茶室,Salon de the FRANCOIS,3.70,1084,1000,1999,1000,1999,1000,1999,1000,1999,kissaten,https://tabelog.com/kyoto/A2601/A260201/26000900/,https://tabelog.com/en/kyoto/A2601/A260201/26000900/,京都府京都市下京区西木屋町通四条下ル,35.0059754,135.7711254,京都府,京都府京都市下京区船頭町 西木屋町通四条下る,Kyoto,https://www.francois1934.com/
00000090,珈琲貴族エジンバラ,Kohikizokuejimbara,3.69,900,1000,1999,1000,1999,1000,1999,1000,1999,kissaten,https://tabelog.com/tokyo/A1304/A130401/13017217/,https://tabelog.com/en/tokyo/A1304/A130401/13017217/,東京都新宿区新宿3-2-4 新宿M&Eスクエアビル 2F,35.6904669,139.706355,東京都,3-chome-2-4 Shinjuku Shinjuku City Tokyo-to,Tokyo,https://edinburgh.jp/
00000091,カヤバ珈琲,Kayabakohi,3.69,924,1000,1999,1000,1999,1000,1999,1000,1999,kissaten,https://tabelog.com/tokyo/A1311/A131104/13019585/,https://tabelog.com/en/tokyo/A1311/A131104/13019585/,東京都台東区谷中6-1-29,35.7211515,139.7707351,東京都,6-chome-1-29 Yanaka Taito City Tokyo-to,Tokyo,
00000092,倉敷珈琲館,Kurashikikohikan,3.63,362,,,1000,1999,,,1000,1999,kissaten,https://tabelog.com/okayama/A3302/A330201/33000383/,https://tabelog.com/en/okayama/A3302/A330201/33000383/,岡山県倉敷市本町4-1,34.5958167,133.7720999,岡山県,4-1 Honmachi Kurashiki Okayama,Okayama,https://www.kurashiki-coffeekan.com/
00000093,珈琲亭 ルアン,Kohiteiruan,3.66,548,1000,1999,1000,1999,1000,1999,1000,1999,kissaten,https://tabelog.com/tokyo/A1315/A131502/13008294/,https://tabelog.com/en/tokyo/A1315/A131502/13008294/,東京都大田区大森北1-36-2,35.5861157,139.7267963,東京都,1-chome-36-2 Ōmorikita Ota City Tokyo-to,Tokyo,
00000094,六曜社珈琲店,rokuyoushako-hi-ten,3.64,479,,,,,,,,,kissaten,https://tabelog.com/kyoto/A2601/A260202/26013227/,https://tabelog.com/en/kyoto/A2601/A260202/26013227/,京都府京都市中京区河原町三条下ル大黒町40,35.0084116,135.7692186,京都府,Kyoto Nakagyo Ward 河原町通三条下る大黒町３６,Kyoto,https://rokuyosha-coffee.com/
00000095,KAKO 柳橋店,Kako,3.65,641,1000,1999,,,1000,1999,,,kissaten,https://tabelog.com/aichi/A2301/A230101/23032087/,https://tabelog.com/en/aichi/A2301/A230101/23032087/,愛知県名古屋市中村区名駅5-30-4 名駅KDビル1F,35.1691295,136.8901497,愛知県,5-chome-30-4 Meieki Nakamura Ward Nagoya Aichi,Aichi,
00000096,加藤珈琲店,Katoukohiten,3.66,568,,,,,,,,,kissaten,https://tabelog.com/aichi/A2301/A230103/23006305/,https://tabelog.com/en/aichi/A2301/A230103/23006305/,愛知県名古屋市東区東桜1-3-2 さくらビル1F,35.173627,136.9103969,愛知県,1-chome-3-2 Higashisakura Higashi-ku Nagoya Aichi,Aichi,http://www.katocoffee.com/
00000097,アンセーニュダングル 原宿店,Enseigne d'angle ,3.69,415,,,1000,1999,,,1000,1999,kissaten,https://tabelog.com/tokyo/A1306/A130601/13007015/,https://tabelog.com/en/tokyo/A1306/A130601/13007015/,東京都渋谷区千駄ヶ谷3-61-11 第二駒信ビル B1F,35.6736683,139.7041609,東京都,Tokyo Shibuya City Sendagaya 3 Chome−61−１１ 第２駒信ビル ＃101,Tokyo,
00000098,COFFEE HALL くぐつ草,Kugutsusou,3.71,1028,1000,1999,1000,1999,1000,1999,1000,1999,kissaten,https://tabelog.com/tokyo/A1320/A132001/13005791/,https://tabelog.com/en/tokyo/A1320/A132001/13005791/,東京都武蔵野市吉祥寺本町1-7-7 島田ビル　Ｂ１Ｆ,35.7042805,139.578273,東京都,1-chome-7-7 Kichijoji Honcho Musashino Tokyo-to,Tokyo,http://www.kugutsusou.info/
00000099,コーヒーハウス マキ,COFFEE HOUSE maki,3.67,413,,,,,,,,,kissaten,https://tabelog.com/kyoto/A2601/A260302/26009412/,https://tabelog.com/en/kyoto/A2601/A260302/26009412/,京都府京都市上京区河原町今出川上ル青龍町211,35.0309432,135.7699357,京都府,Kawaramachi Imadegawa Seiryucho Kamigyo Ward Kyoto,Kyoto,https://coffeehousemaki.jp/
