store_id,store_name,store_name_english,score,review_cnt,tabelog_lunch_budget_min,tabelog_lunch_budget_max,tabelog_dinner_budget_min,tabelog_dinner_budget_max,customer_lunch_budget_min,customer_lunch_budget_max,customer_dinner_budget_min,customer_dinner_budget_max,genre,url,url_english,address,latitude,longitude,prefecture,address_english,prefecture_english,website
00000001,鮨割烹 なか一,Nakaichi,3.61,65,10000,14999,15000,19999,10000,14999,15000,19999,sushi,https://tabelog.com/kyoto/A2601/A260301/26001409/,https://tabelog.com/en/kyoto/A2601/A260301/26001409/,京都府京都市東山区祇園町南側570-196,35.0023565,135.7764461,京都府,570-196 Gionmachi Minamigawa Higashiyama-ku Kyoto,Kyoto,
00000002,鮨 十兵衛,sushijuubee,4.40,307,10000,14999,20000,29999,15000,19999,30000,39999,sushi,https://tabelog.com/fukui/A1801/A180101/18001608/,https://tabelog.com/en/fukui/A1801/A180101/18001608/,福井県福井市文京5-17-5,36.0766743,136.2035366,福井県,Bunkyo Fukui,Fukui,
00000003,菊鮨,Kikuzushi,4.36,403,20000,29999,20000,29999,20000,29999,20000,29999,sushi,https://tabelog.com/fukuoka/A4003/A400301/40010675/,https://tabelog.com/en/fukuoka/A4003/A400301/40010675/,福岡県春日市春日公園3-51-3,33.5254945,130.4737399,福岡県,Kasugakoen Kasuga Fukuoka,Fukuoka,
00000004,こま田,Komada,4.35,98,20000,29999,30000,39999,20000,29999,30000,39999,sushi,https://tabelog.com/mie/A2403/A240301/24012212/,https://tabelog.com/en/mie/A2403/A240301/24012212/,三重県伊勢市河崎2-14-18,34.4945396,136.715151,三重県,2-chome-14-18 Kawasaki Ise Mie,Mie,https://ise-komada.com/
00000005,あか吉,Akakichi,4.06,60,20000,29999,20000,29999,20000,29999,20000,29999,sushi,https://tabelog.com/ehime/A3802/A380201/38005035/,https://tabelog.com/en/ehime/A3802/A380201/38005035/,愛媛県今治市伯方町北浦1203-8,34.2308904,133.1011345,愛媛県,1203-8 Hakatacho Kitaura Imabari Ehime,Ehime,
00000006,鮨 麻生 平尾山荘,Sushi Aso,3.70,145,10000,14999,15000,19999,10000,14999,20000,29999,sushi,https://tabelog.com/fukuoka/A4001/A400104/40031337/,https://tabelog.com/en/fukuoka/A4001/A400104/40031337/,福岡県福岡市中央区平尾5-11-3,33.5714714,130.397039,福岡県,5-chome-11-3 Hirao Chuo-ku Fukuoka,Fukuoka,http://sushi-aso.com/
00000007,鮨いわもと,Sushiiwamoto,3.67,136,20000,29999,20000,29999,10000,14999,20000,29999,sushi,https://tabelog.com/osaka/A2701/A270101/27105582/,https://tabelog.com/en/osaka/A2701/A270101/27105582/,大阪府大阪市北区堂島1-3-9 日宝堂島センタービル 1F,34.6967937,135.4976302,大阪府,1-chome-3-9 Dojima Kita-ku Osaka,Osaka,https://sushi-iwamoto.com/
00000008,鮨 多門,Sushitamon,3.71,36,20000,29999,20000,29999,10000,14999,20000,29999,sushi,https://tabelog.com/saga/A4101/A410101/41002573/,https://tabelog.com/en/saga/A4101/A410101/41002573/,佐賀県佐賀市白山1-2-19,33.25510430000001,130.299386,佐賀県,1-chome-2-19 Shirayama Saga,Saga,
00000009,ひとつ,Hitotsu,3.94,107,20000,29999,20000,29999,10000,14999,15000,19999,sushi,https://tabelog.com/miyazaki/A4501/A450101/45011700/,https://tabelog.com/en/miyazaki/A4501/A450101/45011700/,宮崎県宮崎市橘通東3-4-3 Bricks MBビル 1F,31.9153168,131.4232807,宮崎県,3-chome-4-3 Tachibanadorihigashi Miyazaki,Miyazaki,https://airrsv.net/hitotsu0111/calendar
00000010,鮨 志の助,Shinosuke,3.83,331,20000,29999,20000,29999,20000,29999,30000,39999,sushi,https://tabelog.com/ishikawa/A1701/A170101/17000173/,https://tabelog.com/en/ishikawa/A1701/A170101/17000173/,石川県金沢市入江3-73,36.5671639,136.6227292,石川県,Irie Kanazawa Ishikawa,Ishikawa,http://shinosuke.net/
00000011,寿司つばさ,Sushitsubasa,3.92,157,20000,29999,20000,29999,20000,29999,20000,29999,sushi,https://tabelog.com/fukuoka/A4004/A400401/40043591/,https://tabelog.com/en/fukuoka/A4004/A400401/40043591/,福岡県北九州市小倉北区魚町3-3-24 新米谷ビル2F,33.8830101,130.8798531,福岡県,3-chome-3-24 Uomachi Kokurakita-ku Kitakyushu Fukuoka,Fukuoka,
00000012,きう,Kiu,4.39,175,40000,49999,40000,49999,40000,49999,40000,49999,sushi,https://tabelog.com/kyoto/A2601/A260201/26034605/,https://tabelog.com/en/kyoto/A2601/A260201/26034605/,京都府京都市下京区神明町230-2 2F,35.0024859,135.7625297,京都府,230-2 Shinmeicho Shimogyo-ku Kyoto,Kyoto,
00000013,鮨　縁,Sushien,4.23,148,40000,49999,40000,49999,20000,29999,30000,39999,sushi,https://tabelog.com/okayama/A3301/A330101/33001952/,https://tabelog.com/en/okayama/A3301/A330101/33001952/,岡山県岡山市北区平和町3-11 つるべマンション 1F,34.6641318,133.9240206,岡山県,3-11 Heiwacho Kita-ku Okayama,Okayama,
00000014,鮨 栄美古,Sushiemiko,3.65,50,40000,49999,40000,49999,20000,29999,20000,29999,sushi,https://tabelog.com/hyogo/A2801/A280101/28006109/,https://tabelog.com/en/hyogo/A2801/A280101/28006109/,兵庫県神戸市中央区中山手通1-9-11,34.6956034,135.1917813,兵庫県,1-chome-9-11 Nakayamatedori Chuo-ku Kobe Hyogo,Hyogo,http://www.e-shirahama.jp/emiko/
00000015,鮓 きずな,Kizuna,4.22,533,40000,49999,20000,29999,20000,29999,20000,29999,sushi,https://tabelog.com/osaka/A2701/A270107/27041868/,https://tabelog.com/en/osaka/A2701/A270107/27041868/,大阪府大阪市都島区都島南通2-4-9 藤美ハイツ　１Ｆ,34.7010048,135.5336112,大阪府,2-chome-4-9 Miyakojimaminamidori Miyakojima-ku Osaka,Osaka,
00000016,鮨 原正,Sushiharashou,3.78,124,40000,49999,20000,29999,20000,29999,20000,29999,sushi,https://tabelog.com/osaka/A2701/A270205/27104509/,https://tabelog.com/en/osaka/A2701/A270205/27104509/,大阪府大阪市天王寺区上之宮町3-30,34.6621766,135.5199117,大阪府,3-30 Uenomiyacho Tennoji-ku Osaka,Osaka,
00000017,寿し おおはた,Ohata,4.05,299,40000,49999,15000,19999,20000,29999,20000,29999,sushi,https://tabelog.com/osaka/A2701/A270101/27057420/,https://tabelog.com/en/osaka/A2701/A270101/27057420/,大阪府大阪市北区堂島1-4-8 廣ビル 2F,34.6960723,135.4976854,大阪府,1-chome-4-8 Dojima Kita-ku Osaka,Osaka,
00000018,寿司処 しん,Sushidokoroshin,3.69,200,40000,49999,20000,29999,6000,7999,20000,29999,sushi,https://tabelog.com/osaka/A2701/A270103/27091491/,https://tabelog.com/en/osaka/A2701/A270103/27091491/,大阪府大阪市北区天神橋7-12-14 グレーシィ天神橋 106,34.7142651,135.5109432,大阪府,7-chome-12-14 Tenjinbashi Kita-ku Osaka,Osaka,
00000019,鮨 おさむ,Osamu,3.95,226,5000,5999,15000,19999,5000,5999,20000,29999,sushi,https://tabelog.com/fukuoka/A4001/A400202/40000001/,https://tabelog.com/en/fukuoka/A4001/A400202/40000001/,福岡県福岡市南区長住5-16-10,33.5468656,130.396754,福岡県,5-chome-16-10 Nagazumi Minami-ku Fukuoka,Fukuoka,http://www.sushiosamu.com
00000020,鮨　樋口,Sushihiguchi,3.74,157,5000,5999,15000,19999,5000,5999,20000,29999,sushi,https://tabelog.com/osaka/A2701/A270201/27043154/,https://tabelog.com/en/osaka/A2701/A270201/27043154/,大阪府大阪市中央区東心斎橋2-4-30 グランドジャニスビル１F,34.6717335,135.50505,大阪府,2-chome-4-30 Higashishinsaibashi Chuo-ku Osaka,Osaka,
00000021,鮨処 池上,sushidokoroikegami,3.79,101,5000,5999,20000,29999,5000,5999,30000,39999,sushi,https://tabelog.com/osaka/A2706/A270604/27040900/,https://tabelog.com/en/osaka/A2706/A270604/27040900/,大阪府摂津市千里丘1-7-8,34.7917946,135.5494556,大阪府,Senrioka Settsu Osaka,Osaka,http://sushi-ikegami.com/
00000022,鮨処 多田,Tada,3.92,278,5000,5999,20000,29999,5000,5999,30000,39999,sushi,https://tabelog.com/osaka/A2701/A270101/27003367/,https://tabelog.com/en/osaka/A2701/A270101/27003367/,大阪府大阪市北区曽根崎新地1-5-26 永楽リンデンビル　 4F,34.6982594,135.4988228,大阪府,Osaka 大阪市北区Kita Ward Sonezakishinchi 1 Chome−5−２６ 永楽リンデンビル 2F,Osaka,
00000023,鮨処 石ばし,Sushidokoroishibashi,3.83,123,6000,7999,20000,29999,8000,9999,20000,29999,sushi,https://tabelog.com/fukuoka/A4001/A400104/40038106/,https://tabelog.com/en/fukuoka/A4001/A400104/40038106/,福岡県福岡市中央区赤坂1-2-6 パインマンション　1F,33.5850519,130.3902889,福岡県,1-chome-2-6 Akasaka Chuo-ku Fukuoka,Fukuoka,
00000024,寿司 あさ海,Sushiasaumi,3.84,93,10000,14999,20000,29999,10000,14999,20000,29999,sushi,https://tabelog.com/fukuoka/A4004/A400401/40047358/,https://tabelog.com/en/fukuoka/A4004/A400401/40047358/,福岡県北九州市小倉北区魚町3-2-4 1F,33.8824545,130.8799334,福岡県,3-chome-2-4 Uomachi Kokurakita-ku Kitakyushu Fukuoka,Fukuoka,
00000025,鮨 かんび,Sushikambi,3.76,139,10000,14999,20000,29999,6000,7999,20000,29999,sushi,https://tabelog.com/fukuoka/A4001/A400106/40038828/,https://tabelog.com/en/fukuoka/A4001/A400106/40038828/,福岡県福岡市博多区綱場町1-11 飯尾ビル 1F,33.5978126,130.408667,福岡県,1-11 Tsunabamachi Hakata-ku Fukuoka,Fukuoka,
00000026,鮨 のぐち,sushinoguchi,3.70,162,10000,14999,20000,29999,6000,7999,20000,29999,sushi,https://tabelog.com/osaka/A2701/A270101/27004965/,https://tabelog.com/en/osaka/A2701/A270101/27004965/,大阪府大阪市北区曽根崎新地1-2-8,34.6982594,135.4988228,大阪府,2 Chome-8 Sonezaki Kita Ward Osaka,Osaka,
00000027,一心鮨 光洋,Isshinzushi Koyo,4.13,520,8000,9999,20000,29999,10000,14999,30000,39999,sushi,https://tabelog.com/miyazaki/A4501/A450101/45000157/,https://tabelog.com/en/miyazaki/A4501/A450101/45000157/,宮崎県宮崎市昭和町21,31.9085338,131.4359512,宮崎県,21 Showacho Miyazaki,Miyazaki,http://www.isshinzushi.com/
00000028,枯淡,Kotan,4.03,142,8000,9999,20000,29999,20000,29999,20000,29999,sushi,https://tabelog.com/fukuoka/A4001/A400105/40059069/,https://tabelog.com/en/fukuoka/A4001/A400105/40059069/,福岡県福岡市中央区桜坂1-5-15,33.5788425,130.3870795,福岡県,1-chome-5-15 Sakurazaka Chuo Ward Fukuoka,Fukuoka,
00000029,扇一 ます寿し本舗,Ogiichimasuzushihompo,3.76,272,2000,2999,20000,29999,2000,2999,20000,29999,sushi,https://tabelog.com/toyama/A1601/A160101/16008103/,https://tabelog.com/en/toyama/A1601/A160101/16008103/,富山県富山市小泉町54-11,36.67822,137.2182279,富山県,54-11 Koizumicho Toyama,Toyama,
00000030,寿司 中川,Sushinakagawa,3.81,158,2000,2999,20000,29999,2000,2999,20000,29999,sushi,https://tabelog.com/kagawa/A3701/A370101/37000760/,https://tabelog.com/en/kagawa/A3701/A370101/37000760/,香川県高松市御坊町10-7,34.3433688,134.0510098,香川県,10-7 Gobomachi Takamatsu Kagawa,Kagawa,
00000031,喜一,Kiichi,3.79,130,10000,14999,20000,29999,10000,14999,15000,19999,sushi,https://tabelog.com/hyogo/A2803/A280302/28040672/,https://tabelog.com/en/hyogo/A2803/A280302/28040672/,兵庫県芦屋市大桝町5-8 アパートメントアシヤ大枡 1F,34.7297065,135.3059313,兵庫県,5-8 Ōmasucho Ashiya Hyogo,Hyogo,http://kiichi.gorp.jp
00000032,すし うえだ,sushiueda,4.06,132,20000,29999,20000,29999,20000,29999,30000,39999,sushi,https://tabelog.com/hyogo/A2801/A280102/28053397/,https://tabelog.com/en/hyogo/A2801/A280102/28053397/,兵庫県神戸市中央区中山手通3-2-1 トア山手ザ神戸タワー112,34.69368250000001,135.1875784,兵庫県,3-chome-2-1 Nakayamatedori Chuo-ku Kobe Hyogo,Hyogo,https://sushi-ueda.com/
00000033,江戸前鮨 二鶴,Edomaezushinikaku,3.95,78,20000,29999,20000,29999,20000,29999,30000,39999,sushi,https://tabelog.com/fukuoka/A4004/A400401/40000768/,https://tabelog.com/en/fukuoka/A4004/A400401/40000768/,福岡県北九州市小倉北区足立1-4-31,33.8688301,130.8983711,福岡県,Adachi Kokurakita Ward Kitakyushu Fukuoka,Fukuoka,http://www.edomaezushi-nikaku.com/
00000034,江戸心 山ぼうし,edokokoroyamaboushi,3.74,116,20000,29999,20000,29999,20000,29999,20000,29999,sushi,https://tabelog.com/fukuoka/A4001/A400103/40004475/,https://tabelog.com/en/fukuoka/A4001/A400103/40004475/,福岡県福岡市中央区西中洲2-15 プラネットビル 3F,33.5905953,130.4047649,福岡県,2-15 Nishinakasu Chuo-ku Fukuoka,Fukuoka,
00000035,旬鮮彩鮨　豊のはなれ,Toyonohanare,3.70,46,20000,29999,20000,29999,20000,29999,20000,29999,sushi,https://tabelog.com/fukuoka/A4004/A400404/40020337/,https://tabelog.com/en/fukuoka/A4004/A400404/40020337/,福岡県北九州市八幡西区熊手2-2-1,33.8628472,130.7682133,福岡県,2-chome-2-1 Kumade Yahatanishi-ku Kitakyushu Fukuoka,Fukuoka,
00000036,髙橋 謙太郎,Takahashikentarou,3.93,253,20000,29999,20000,29999,20000,29999,30000,39999,sushi,https://tabelog.com/osaka/A2701/A270101/27087204/,https://tabelog.com/en/osaka/A2701/A270101/27087204/,大阪府大阪市北区曽根崎新地1-7-5 バサラビル 4Ｆ,34.6982594,135.4988228,大阪府,Osaka Kita Ward 曽根崎新地1−７−５ バサラビル3階,Osaka,
00000037,菊水鮓 西店,Kikusuizushi,3.86,91,10000,14999,15000,19999,20000,29999,20000,29999,sushi,https://tabelog.com/hyogo/A2804/A280401/28031883/,https://tabelog.com/en/hyogo/A2804/A280401/28031883/,兵庫県明石市松の内1-4-15,34.664528,134.9646734,兵庫県,4-15 Matsunouchi 1-chome Akashi Hyogo,Hyogo,
00000038,寿司 うち田,Sushiuchida,3.77,111,10000,14999,20000,29999,20000,29999,20000,29999,sushi,https://tabelog.com/osaka/A2701/A270101/27011689/,https://tabelog.com/en/osaka/A2701/A270101/27011689/,大阪府大阪市北区堂島1-3-40 スタッフ堂島ビル　２Ｆ,34.6964787,135.4985691,大阪府,1-chome-3-40 Dojima Kita-ku Osaka,Osaka,
00000039,祇園 鮨 忠保,Gionsushitadayasu,3.77,198,10000,14999,30000,39999,15000,19999,30000,39999,sushi,https://tabelog.com/kyoto/A2601/A260301/26029012/,https://tabelog.com/en/kyoto/A2601/A260301/26029012/,京都府京都市東山区祇園町南側572-9,35.0034633,135.7745928,京都府,572-9 Gionmachi Minamigawa Higashiyama-ku Kyoto,Kyoto,
00000040,千成寿司,Sennarizushi,3.74,125,10000,14999,30000,39999,15000,19999,20000,29999,sushi,https://tabelog.com/osaka/A2701/A270307/27011309/,https://tabelog.com/en/osaka/A2701/A270307/27011309/,大阪府大阪市東淀川区菅原5-5-13,34.7400963,135.5184376,大阪府,5-chome-5-13 Sugahara Higashiyodogawa-ku Osaka,Osaka,http://sennarisushi.com/
00000041,幸寿し 本店,Kouzushi Honten,3.73,376,5000,5999,30000,39999,5000,5999,10000,14999,sushi,https://tabelog.com/ishikawa/A1703/A170302/17000352/,https://tabelog.com/en/ishikawa/A1703/A170302/17000352/,石川県七尾市相生町30-1,37.0445044,136.9672337,石川県,30-1 Aioicho Nanao Ishikawa,Ishikawa,
00000042,乙女寿司,Otomezushi,4.11,498,5000,5999,30000,39999,20000,29999,20000,29999,sushi,https://tabelog.com/ishikawa/A1701/A170101/17000107/,https://tabelog.com/en/ishikawa/A1701/A170101/17000107/,石川県金沢市木倉町4-10,36.5614302,136.651708,石川県,4-10 Kiguramachi Kanazawa Ishikawa,Ishikawa,
00000043,鮨 八や,Sushi Hachiya,3.74,150,5000,5999,30000,39999,20000,29999,15000,19999,sushi,https://tabelog.com/ishikawa/A1701/A170101/17000512/,https://tabelog.com/en/ishikawa/A1701/A170101/17000512/,石川県金沢市示野中町1-71-7,36.5771687,136.6172084,石川県,1-chome-71-7 Shimeno Nakamachi Kanazawa Ishikawa,Ishikawa,
00000044,鮨舳,Sushitomo,3.83,128,5000,5999,30000,39999,20000,29999,20000,29999,sushi,https://tabelog.com/kagawa/A3701/A370101/37000358/,https://tabelog.com/en/kagawa/A3701/A370101/37000358/,香川県高松市瓦町2-8-17,34.3400432,134.0515488,香川県,8-17 Kawaramachi 2-chome Takamatsu Kagawa,Kagawa,
00000045,鮨 まつ本,Sushimatsumoto,3.98,245,15000,19999,20000,29999,15000,19999,20000,29999,sushi,https://tabelog.com/hyogo/A2803/A280301/28006932/,https://tabelog.com/en/hyogo/A2803/A280301/28006932/,兵庫県西宮市樋之池町2-33 セルシェール苦楽園　１Ｆ,34.7515138,135.3240038,兵庫県,2-33 Hinoikecho Nishinomiya Hyogo,Hyogo,
00000046,鮨 福萬,Sushifukuman,3.70,129,15000,19999,15000,19999,15000,19999,20000,29999,sushi,https://tabelog.com/osaka/A2701/A270204/27051709/,https://tabelog.com/en/osaka/A2701/A270204/27051709/,大阪府大阪市中央区瓦屋町1-6-2,34.6732041,135.5134287,大阪府,1-chome-6-2 Kawarayamachi Chuo-ku Osaka,Osaka,
00000047,鮨 行天,Gyoten,4.35,202,50000,59999,50000,59999,50000,59999,60000,79999,sushi,https://tabelog.com/fukuoka/A4001/A400104/40032025/,https://tabelog.com/en/fukuoka/A4001/A400104/40032025/,福岡県福岡市中央区平尾1-2-12 井上ビル 1F,33.5803527,130.401188,福岡県,1-chome-2-12 Hirao Chuo-ku Fukuoka,Fukuoka,
00000048,寿司常,Sushitsune,3.70,139,1000,1999,50000,59999,2000,2999,4000,4999,sushi,https://tabelog.com/osaka/A2701/A270103/27094765/,https://tabelog.com/en/osaka/A2701/A270103/27094765/,大阪府大阪市北区天神橋2-4-3,34.6967261,135.5121396,大阪府,2-chome-4-3 Tenjinbashi Kita-ku Osaka,Osaka,http://www.ryusdc.net/sushitsune/
00000049,鮨 生粋,Sushikissui,3.76,160,1000,1999,50000,59999,2000,2999,20000,29999,sushi,https://tabelog.com/hyogo/A2801/A280105/28006305/,https://tabelog.com/en/hyogo/A2801/A280105/28006305/,兵庫県神戸市東灘区本山中町3-3-6,34.7257536,135.2821296,兵庫県,Motoyama Nakamachi Higashinada Ward Kobe Hyogo,Hyogo,
00000050,鮨処 つく田,Tsukuta,3.83,308,6000,7999,50000,59999,10000,14999,20000,29999,sushi,https://tabelog.com/saga/A4102/A410201/41000031/,https://tabelog.com/en/saga/A4102/A410201/41000031/,佐賀県唐津市中町1879-1,33.4482199,129.9703055,佐賀県,1879-1 Nakamachi Karatsu Saga,Saga,http://tsukuta.9syoku.com/
00000051,鮨料理 一高,Sushiryouriichitaka,3.92,134,15000,19999,20000,29999,15000,19999,20000,29999,sushi,https://tabelog.com/fukuoka/A4001/A400105/40052388/,https://tabelog.com/en/fukuoka/A4001/A400105/40052388/,"福岡県福岡市中央区荒戸1-2-2 ロワールマンション大濠101,102",33.5908455,130.3779566,福岡県,1-chome-2-2 Arato Chuo-ku Fukuoka,Fukuoka,https://ichitaka-fukuoka.com/sushi/
00000052,丸喜すし,Marukisushi,3.73,49,15000,19999,20000,29999,15000,19999,20000,29999,sushi,https://tabelog.com/fukuoka/A4004/A400402/40018620/,https://tabelog.com/en/fukuoka/A4004/A400402/40018620/,福岡県北九州市戸畑区浅生2-13-12,33.8946094,130.8241941,福岡県,2-chome-13-12 Asou Tobata-ku Kitakyushu Fukuoka,Fukuoka,http://www.marukisushi.com
00000053,弥助,Yasuke,3.90,237,6000,7999,20000,29999,10000,14999,20000,29999,sushi,https://tabelog.com/osaka/A2705/A270501/27001079/,https://tabelog.com/en/osaka/A2705/A270501/27001079/,大阪府堺市堺区大町東1-1-18,34.5763476,135.4726358,大阪府,1-chome-1-18 Ōchohigashi Sakai-ku Sakai Osaka,Osaka,http://www.yasuke.co.jp/index.html
00000054,鮨 三心,Sushisanshin,4.44,339,20000,29999,20000,29999,20000,29999,30000,39999,sushi,https://tabelog.com/osaka/A2701/A270204/27095402/,https://tabelog.com/en/osaka/A2701/A270204/27095402/,大阪府大阪市中央区内久宝寺町2-7-14,34.6781198,135.5182231,大阪府,2-chome-7-14 Uchikyuhojimachi Chuo-ku Osaka,Osaka,
00000055,鮨 なかむら,Sushinakamura,3.78,46,20000,29999,15000,19999,20000,29999,30000,39999,sushi,https://tabelog.com/kumamoto/A4301/A430101/43011980/,https://tabelog.com/en/kumamoto/A4301/A430101/43011980/,熊本県熊本市中央区城東町5-59 ydビル 1F,32.8057781,130.7104449,熊本県,5-59 Jotomachi Chuo-ku Kumamoto,Kumamoto,https://tabelog.com/kumamoto/A4301/A430101/43017173/
00000056,寿司赤酢 神戸元町店,sushiakazu kobemotomachiten,3.72,47,15000,19999,15000,19999,15000,19999,15000,19999,sushi,https://tabelog.com/hyogo/A2801/A280101/28057552/,https://tabelog.com/en/hyogo/A2801/A280101/28057552/,兵庫県神戸市中央区中山手通3-2-1 トア山手ザ神戸タワー114,34.69368250000001,135.1875784,兵庫県,3-chome-2-1 Nakayamatedori Chuo-ku Kobe Hyogo,Hyogo,
00000057,飛,Tobi,3.75,192,15000,19999,15000,19999,10000,14999,15000,19999,sushi,https://tabelog.com/ishikawa/A1701/A170101/17010234/,https://tabelog.com/en/ishikawa/A1701/A170101/17010234/,石川県金沢市尾山町12-5,36.5666957,136.6546317,石川県,12-5 Oyamamachi Kanazawa Ishikawa,Ishikawa,
00000058,鮨まつもと,Sushimatsumoto,3.79,252,15000,19999,15000,19999,10000,14999,20000,29999,sushi,https://tabelog.com/kyoto/A2601/A260301/26002579/,https://tabelog.com/en/kyoto/A2601/A260301/26002579/,京都府京都市東山区祇園町南側570-123,35.0031565,135.7744724,京都府,570-123 Gionmachi Minamigawa Higashiyama-ku Kyoto,Kyoto,
00000059,鮨　仙八,Sushisempachi,3.99,259,10000,14999,15000,19999,10000,14999,20000,29999,sushi,https://tabelog.com/kumamoto/A4301/A430101/43002645/,https://tabelog.com/en/kumamoto/A4301/A430101/43002645/,熊本県熊本市中央区花畑町13-24 花畑ビル BF,32.8004566,130.7063307,熊本県,13-24 Hanabatacho Chuo-ku Kumamoto,Kumamoto,http://sushi-senpachi.com
00000060,鮨 一二郎,Sushiichijirou,3.58,79,10000,14999,15000,19999,10000,14999,10000,14999,sushi,https://tabelog.com/osaka/A2705/A270502/27000713/,https://tabelog.com/en/osaka/A2705/A270502/27000713/,大阪府泉大津市昭和町10-27,34.4993165,135.4022975,大阪府,10-27 Showacho Izumiotsu Osaka,Osaka,
00000061,鮨 村上二郎,Sushimurakamijirou,3.74,166,10000,14999,15000,19999,10000,14999,30000,39999,sushi,https://tabelog.com/osaka/A2701/A270101/27078821/,https://tabelog.com/en/osaka/A2701/A270101/27078821/,大阪府大阪市北区曽根崎新地1-5-7 森ビル 1F,34.6982594,135.4988228,大阪府,Osaka Kita Ward 5 大阪市北区曽根崎新地1-5-7森ビル2F,Osaka,
00000062,寿司 もり田,sushimorita,3.73,183,15000,19999,20000,29999,15000,19999,15000,19999,sushi,https://tabelog.com/fukuoka/A4004/A400401/40000408/,https://tabelog.com/en/fukuoka/A4004/A400401/40000408/,福岡県北九州市小倉北区魚町2-5-17 インクスポットビル　２Ｆ,33.8839069,130.88088,福岡県,2-chome-5-17 Uomachi Kokurakita-ku Kitakyushu Fukuoka,Fukuoka,https://fb24000.gorp.jp
00000063,鮨 重兵衛,sushijuubee,3.60,53,15000,19999,20000,29999,15000,19999,15000,19999,sushi,https://tabelog.com/nagasaki/A4202/A420201/42002454/,https://tabelog.com/en/nagasaki/A4202/A420201/42002454/,長崎県佐世保市栄町5-16,33.1736193,129.7196158,長崎県,5-16 Sakaemachi Sasebo Nagasaki,Nagasaki,
00000064,鮨 唐島,Sushikarashima,4.21,167,15000,19999,20000,29999,15000,19999,50000,59999,sushi,https://tabelog.com/fukuoka/A4001/A400105/40048710/,https://tabelog.com/en/fukuoka/A4001/A400105/40048710/,福岡県福岡市中央区赤坂3-1-2 大東ビルⅡ 1F,33.5808928,130.3878608,福岡県,3-chome-1-2 Akasaka Chuo-ku Fukuoka,Fukuoka,
00000065,照寿司,Teruzushi,4.25,382,40000,49999,40000,49999,40000,49999,40000,49999,sushi,https://tabelog.com/fukuoka/A4004/A400402/40001637/,https://tabelog.com/en/fukuoka/A4004/A400402/40001637/,福岡県北九州市戸畑区菅原3-1-7,33.8865236,130.8306026,福岡県,3-chome-1-7 Sugawara Tobata-ku Kitakyushu Fukuoka,Fukuoka,http://terusushi.jp
00000066,尽誠,Jinsei,4.11,263,40000,49999,20000,29999,40000,49999,40000,49999,sushi,https://tabelog.com/osaka/A2701/A270201/27000411/,https://tabelog.com/en/osaka/A2701/A270201/27000411/,大阪府大阪市中央区心斎橋筋2-1-3,34.671607,135.5022237,大阪府,2-chome-1-3 Shinsaibashisuji Chuo-ku Osaka,Osaka,
00000067,すし屋　小桜,Sushiyakozakura,3.79,170,10000,14999,20000,29999,10000,14999,20000,29999,sushi,https://tabelog.com/ishikawa/A1701/A170101/17010028/,https://tabelog.com/en/ishikawa/A1701/A170101/17010028/,石川県金沢市昭和町15-21,36.5753712,136.6480871,石川県,15-21 Showamachi Kanazawa Ishikawa,Ishikawa,
00000068,太平寿し,Taheizushi,4.02,360,10000,14999,20000,29999,10000,14999,20000,29999,sushi,https://tabelog.com/ishikawa/A1702/A170203/17000118/,https://tabelog.com/en/ishikawa/A1702/A170203/17000118/,石川県野々市市太平寺1-164,36.5263072,136.6047889,石川県,Taheiji Nonoichi Ishikawa,Ishikawa,http://ishikawa-sushi.com/shopdetail/shopinfo.php?shop=taheiく
00000069,黒杉,kurosugi,3.73,210,6000,7999,20000,29999,10000,14999,20000,29999,sushi,https://tabelog.com/osaka/A2701/A270101/27086390/,https://tabelog.com/en/osaka/A2701/A270101/27086390/,大阪府大阪市北区堂島浜1-2-1 新ダイビル 2F,34.6956963,135.4991341,大阪府,1-chome-2-1 Dojimahama Kita-ku Osaka,Osaka,https://sushidokoro-kurosugi.com/
00000070,寿志 城助,sushijousuke,4.10,222,6000,7999,15000,19999,10000,14999,20000,29999,sushi,https://tabelog.com/hyogo/A2801/A280103/28006575/,https://tabelog.com/en/hyogo/A2801/A280103/28006575/,兵庫県神戸市中央区北野町2-1-10 黄能ハウス 1F,34.7002183,135.1921196,兵庫県,2-chome-1-10 Kitanocho Chuo-ku Kobe Hyogo,Hyogo,
00000071,鮨 大門,Daimon,3.98,159,6000,7999,15000,19999,10000,14999,20000,29999,sushi,https://tabelog.com/toyama/A1602/A160202/16006504/,https://tabelog.com/en/toyama/A1602/A160202/16006504/,富山県魚津市釈迦堂1-2-3,36.8264887,137.4068125,富山県,1-chome-2-3 Shakado Uozu Toyama,Toyama,
00000072,我逢人,Gahoujin,4.10,134,20000,29999,20000,29999,20000,29999,30000,39999,sushi,https://tabelog.com/fukuoka/A4001/A400103/40055175/,https://tabelog.com/en/fukuoka/A4001/A400103/40055175/,福岡県福岡市中央区西中洲3-20 LANEラウンドビル 3F,33.590811,130.4055214,福岡県,3-20 Nishinakasu Chuo-ku Fukuoka,Fukuoka,https://sakai-sushi.jp/index.html
00000073,むら上,Murakami,3.97,87,20000,29999,20000,29999,15000,19999,20000,29999,sushi,https://tabelog.com/kumamoto/A4301/A430101/43014482/,https://tabelog.com/en/kumamoto/A4301/A430101/43014482/,熊本県熊本市中央区桜町5-17 SAKURA TERRACE 2F,32.8000359,130.7010223,熊本県,5-17 Sakuramachi Chuo-ku Kumamoto,Kumamoto,
00000074,松寿司,Matsusushi,3.78,218,20000,29999,20000,29999,20000,29999,20000,29999,sushi,https://tabelog.com/osaka/A2701/A270203/27015415/,https://tabelog.com/en/osaka/A2701/A270203/27015415/,大阪府大阪市阿倍野区王子町3-13-6,34.6277534,135.510008,大阪府,3-chome-13-6 Ōjicho Abeno-ku Osaka,Osaka,
00000075,鮓 たいと,Sushitaito,3.89,77,20000,29999,20000,29999,10000,14999,15000,19999,sushi,https://tabelog.com/kumamoto/A4305/A430501/43001426/,https://tabelog.com/en/kumamoto/A4305/A430501/43001426/,熊本県天草市浄南町2-2,32.452118,130.1936993,熊本県,2-2 Jonanmachi Amakusa Kumamoto,Kumamoto,http://sushitaito.sakura.ne.jp/index.html
00000076,鮨 田可尾,Sushitakao,3.71,86,20000,29999,10000,14999,10000,14999,20000,29999,sushi,https://tabelog.com/fukuoka/A4001/A400103/40000074/,https://tabelog.com/en/fukuoka/A4001/A400103/40000074/,福岡県福岡市中央区渡辺通5-15-4 シティパレス南天神 1F,33.58659859999999,130.4039187,福岡県,5-chome-15-4 Watanabedori Chuo-ku Fukuoka,Fukuoka,
00000077,植月,Uetsuki,3.71,83,20000,29999,10000,14999,20000,29999,10000,14999,sushi,https://tabelog.com/hyogo/A2801/A280102/28000679/,https://tabelog.com/en/hyogo/A2801/A280102/28000679/,兵庫県神戸市兵庫区荒田町3-41-16,34.6862267,135.1692354,兵庫県,3-chome-41-16 Aratacho Hyogo-ku Kobe Hyogo,Hyogo,
00000078,鮨 難波,sushinamba,3.79,126,6000,7999,20000,29999,6000,7999,20000,29999,sushi,https://tabelog.com/toyama/A1601/A160101/16000585/,https://tabelog.com/en/toyama/A1601/A160101/16000585/,富山県富山市公文名34-12,36.6761749,137.2348266,富山県,34-12 Kumonmyo Toyama,Toyama,https://sushi-nanba.com/
00000079,鮨 さかい,Sakai,4.52,499,40000,49999,40000,49999,40000,49999,50000,59999,sushi,https://tabelog.com/fukuoka/A4001/A400103/40034544/,https://tabelog.com/en/fukuoka/A4001/A400103/40034544/,福岡県福岡市中央区西中洲3-20 LANEラウンドビル 2F,33.590811,130.4055214,福岡県,3-20 Nishinakasu Chuo-ku Fukuoka,Fukuoka,https://sakai-sushi.jp/
00000080,天寿し 京町店,Tenzushi Kyomachi,4.59,716,40000,49999,40000,49999,50000,59999,40000,49999,sushi,https://tabelog.com/fukuoka/A4004/A400401/40000721/,https://tabelog.com/en/fukuoka/A4004/A400401/40000721/,福岡県北九州市小倉北区京町3-11-9,33.8851716,130.8844343,福岡県,3-chome-11-9 Kyomachi Kokurakita-ku Kitakyushu Fukuoka,Fukuoka,
00000081,すし処 めくみ,Mekumi,4.50,437,40000,49999,40000,49999,40000,49999,40000,49999,sushi,https://tabelog.com/ishikawa/A1702/A170203/17000700/,https://tabelog.com/en/ishikawa/A1702/A170203/17000700/,石川県野々市市下林4-48,36.52142600000001,136.6017178,石川県,Shimobayashi Nonoichi Ishikawa,Ishikawa,
00000082,寿司 赤酢,Sushiakazu,3.76,273,20000,29999,20000,29999,15000,19999,20000,29999,sushi,https://tabelog.com/osaka/A2701/A270101/27114022/,https://tabelog.com/en/osaka/A2701/A270101/27114022/,大阪府大阪市北区堂島1-3-4 谷安ビル B1F,34.6963789,135.4982009,大阪府,1-chome-3-4 Dojima Kita-ku Osaka,Osaka,http://sushiakazu.com/
00000083,鮨 巳之七,Sushiminoshichi,3.73,51,20000,29999,20000,29999,15000,19999,20000,29999,sushi,https://tabelog.com/fukuoka/A4001/A400104/40042084/,https://tabelog.com/en/fukuoka/A4001/A400104/40042084/,福岡県福岡市中央区薬院2-18-13 1F,33.5827175,130.3925283,福岡県,2-chome-18-13 Yakuin Chuo-ku Fukuoka,Fukuoka,
00000084,鮨 そえ島,Sushisoejima,3.88,93,20000,29999,15000,19999,15000,19999,20000,29999,sushi,https://tabelog.com/fukuoka/A4001/A400101/40045530/,https://tabelog.com/en/fukuoka/A4001/A400101/40045530/,福岡県福岡市博多区美野島2-6-34 アスティオン美野島 1F,33.5801287,130.4187297,福岡県,2-chome-6-34 Minoshima Hakata-ku Fukuoka,Fukuoka,
00000085,すし屋 亙,Sushiyanobu,4.11,126,20000,29999,15000,19999,15000,19999,20000,29999,sushi,https://tabelog.com/hyogo/A2806/A280601/28023929/,https://tabelog.com/en/hyogo/A2806/A280601/28023929/,兵庫県淡路市志筑1871-5,34.4357675,134.8956437,兵庫県,1871-5 Shizuki Awaji Hyogo,Hyogo,
00000086,すし処 ひさ田,Hisada,4.31,239,40000,49999,40000,49999,40000,49999,40000,49999,sushi,https://tabelog.com/okayama/A3301/A330104/33000059/,https://tabelog.com/en/okayama/A3301/A330104/33000059/,岡山県赤磐市桜が丘西9-1-4,34.7773357,134.0255128,岡山県,9 Chome-1-4 Sakuragaokanishi Akaiwa-shi Okayama-ken,Okayama,
00000087,鮨し人,Sushijin,4.20,637,40000,49999,40000,49999,10000,14999,20000,29999,sushi,https://tabelog.com/toyama/A1601/A160101/16001163/,https://tabelog.com/en/toyama/A1601/A160101/16001163/,富山県富山市新根塚町3-5-7,36.6771704,137.2072082,富山県,3-chome-5-7 Shinnezukamachi Toyama,Toyama,
00000088,鮨　いの,Sushiino,3.97,185,5000,5999,20000,29999,8000,9999,20000,29999,sushi,https://tabelog.com/ehime/A3801/A380101/38010409/,https://tabelog.com/en/ehime/A3801/A380101/38010409/,愛媛県松山市二番町1-10-9 MITUWA320 3F,33.8396825,132.7689571,愛媛県,1-chome-10-9 Nibancho Matsuyama Ehime,Ehime,http://sushi-ino.com
00000089,小松 弥助,Komatsu Yasuke,4.11,469,10000,14999,20000,29999,20000,29999,30000,39999,sushi,https://tabelog.com/ishikawa/A1701/A170101/17010524/,https://tabelog.com/en/ishikawa/A1701/A170101/17010524/,石川県金沢市本町2-17-21 金沢茶屋別館 1F,36.5767673,136.6501897,石川県,2-chome-17-21 Honmachi Kanazawa Ishikawa,Ishikawa,
00000090,鮨匠 のむら,Sushisho Nomura,4.42,233,20000,29999,20000,29999,20000,29999,40000,49999,sushi,https://tabelog.com/kagoshima/A4601/A460101/46000087/,https://tabelog.com/en/kagoshima/A4601/A460101/46000087/,鹿児島県鹿児島市松原町6-2 松原ハイツ　１F,31.5875455,130.5584435,鹿児島県,6-2 Matsubaracho Kagoshima,Kagoshima,
00000091,近松,Chikamatsu,4.56,183,20000,29999,20000,29999,20000,29999,20000,29999,sushi,https://tabelog.com/fukuoka/A4001/A400104/40000415/,https://tabelog.com/en/fukuoka/A4001/A400104/40000415/,福岡県福岡市中央区薬院2-6-19,33.5807846,130.3933755,福岡県,2-chome-6-19 Yakuin Chuo-ku Fukuoka,Fukuoka,
00000092,鮨　Shizuku,Sushishizuku,3.82,226,20000,29999,20000,29999,20000,29999,20000,29999,sushi,https://tabelog.com/osaka/A2701/A270201/27093524/,https://tabelog.com/en/osaka/A2701/A270201/27093524/,大阪府大阪市中央区東心斎橋2-1-27 周防町ウィングス 1F,34.6717735,135.505855,大阪府,2-chome-1-27 Higashishinsaibashi Chuo-ku Osaka,Osaka,http://sushi-shizuku.com
00000093,たつ庄,Tatsushou,3.81,188,10000,14999,30000,39999,20000,29999,30000,39999,sushi,https://tabelog.com/fukuoka/A4001/A400104/40006240/,https://tabelog.com/en/fukuoka/A4001/A400104/40006240/,福岡県福岡市中央区高砂1-19-28 エスポワール渡辺通南 １Ｆ,33.5805626,130.4063576,福岡県,1-chome-19-28 Takasago Chuo-ku Fukuoka,Fukuoka,
00000094,江戸町 すぎもと,Edomachisugimoto,3.88,87,8000,9999,20000,29999,15000,19999,20000,29999,sushi,https://tabelog.com/mie/A2402/A240203/24018684/,https://tabelog.com/en/mie/A2402/A240203/24018684/,三重県桑名市江戸町25,35.0654242,136.695956,三重県,25 Edomachi Kuwana Mie,Mie,
00000095,寿司 竹本,Sushitakemoto,4.02,83,15000,19999,20000,29999,15000,19999,20000,29999,sushi,https://tabelog.com/fukuoka/A4004/A400401/40004326/,https://tabelog.com/en/fukuoka/A4004/A400401/40004326/,福岡県北九州市小倉北区片野1-4-7,33.87067460000001,130.8829788,福岡県,1-chome-4-7 Katano Kokurakita-ku Kitakyushu Fukuoka,Fukuoka,
00000096,奴寿司,Yakkozushi,3.83,246,15000,19999,20000,29999,8000,9999,15000,19999,sushi,https://tabelog.com/kumamoto/A4305/A430501/43001204/,https://tabelog.com/en/kumamoto/A4305/A430501/43001204/,熊本県天草市東町76-1,32.4504907,130.2014181,熊本県,76-1 Higashimachi Amakusa Kumamoto,Kumamoto,http://www.t-island.jp/gourmets/奴寿司
00000097,大阪天満宮 鮨とよなが,Oosakatemmanguusushitoyonaga,3.83,169,15000,19999,30000,39999,30000,39999,30000,39999,sushi,https://tabelog.com/osaka/A2701/A270103/27105145/,https://tabelog.com/en/osaka/A2701/A270103/27105145/,大阪府大阪市北区天神橋2-5-3 1Ｆ,34.6969276,135.5134471,大阪府,2-chome-5-3 Tenjinbashi Kita-ku Osaka,Osaka,
00000098,くるますし,Kurumasushi,4.35,182,15000,19999,30000,39999,30000,39999,20000,29999,sushi,https://tabelog.com/ehime/A3801/A380101/38002524/,https://tabelog.com/en/ehime/A3801/A380101/38002524/,愛媛県松山市一番町1-6-9,33.841011,132.7734731,愛媛県,1-chome-6-9 Ichibancho Matsuyama Ehime,Ehime,https://www.kurumasushi.com
00000099,鮨 おおが,Sushiooga,4.31,300,15000,19999,50000,59999,50000,59999,50000,59999,sushi,https://tabelog.com/osaka/A2705/A270501/27104114/,https://tabelog.com/en/osaka/A2705/A270501/27104114/,大阪府堺市堺区大町東1-2-7,34.5762008,135.4729026,大阪府,1-chome-2-7 Ōchohigashi Sakai-ku Sakai Osaka,Osaka,
00000100,寿司赤酢・望月,Sushiakazu mochizuki,3.65,106,15000,19999,15000,19999,15000,19999,20000,29999,sushi,https://tabelog.com/osaka/A2701/A270101/27120182/,https://tabelog.com/en/osaka/A2701/A270101/27120182/,大阪府大阪市北区堂島1-3-4 谷安ビル 1F,34.6963789,135.4982009,大阪府,1-chome-3-4 Dojima Kita Ward Osaka,Osaka,https://sushiakazu.com
