store_id,store_name,store_name_english,score,review_cnt,tabelog_lunch_budget_min,tabelog_lunch_budget_max,tabelog_dinner_budget_min,tabelog_dinner_budget_max,customer_lunch_budget_min,customer_lunch_budget_max,customer_dinner_budget_min,customer_dinner_budget_max,genre,url,url_english,address,latitude,longitude,prefecture,address_english,prefecture_english,website
00000001,亀屋陸奥,Kameyamutsu,3.62,118,0,999,,,0,999,,,wagashi,https://tabelog.com/kyoto/A2601/A260101/26002071/,https://tabelog.com/en/kyoto/A2601/A260101/26002071/,京都府京都市下京区西中筋通七条上ル菱屋町153,34.9894754,135.7533818,京都府,153 Hishiyacho Shimogyo-ku Kyoto,Kyoto,http://www.kameyamutsu.jp/
00000002,麩嘉 錦店,Fuuka,3.66,248,1000,1999,,,1000,999,,,wagashi,https://tabelog.com/kyoto/A2601/A260201/26007146/,https://tabelog.com/en/kyoto/A2601/A260201/26007146/,京都府京都市中京区錦小路堺町角菊屋町534-1,35.0050809,135.7633389,京都府,534-1 Kikuyacho Nakagyo Ward Kyoto,Kyoto,http://www.fuka-kyoto.com/
00000003,今西軒,Imanishiken,3.86,392,1000,1999,,,1000,999,,,wagashi,https://tabelog.com/kyoto/A2601/A260201/26002101/,https://tabelog.com/en/kyoto/A2601/A260201/26002101/,京都府京都市下京区烏丸五条西入ル一筋目下ル横諏訪町312,34.995469,135.758941,京都府,312 Yokosuwancho Shimogyo Ward Kyoto,Kyoto,http://aquadina.com/kyoto/spot/2809/
00000004,粟餅所・澤屋,Awamochidokorosawaya,3.75,789,0,999,0,999,0,999,0,999,wagashi,https://tabelog.com/kyoto/A2601/A260501/26001539/,https://tabelog.com/en/kyoto/A2601/A260501/26001539/,京都府京都市上京区北野天満宮前西入紙屋川町838-7,35.0276154,135.7352024,京都府,838-7 Kamiyagawacho Kamigyo Ward Kyoto,Kyoto,
00000005,ぎをん 小森,Giwonkomori,3.62,949,1000,1999,1000,1999,1000,1999,1000,1999,wagashi,https://tabelog.com/kyoto/A2601/A260301/26000280/,https://tabelog.com/en/kyoto/A2601/A260301/26000280/,京都府京都市東山区新橋通大和大路東入元吉町61,35.0058596,135.7745928,京都府,61 Motoyoshicho Higashiyama-ku Kyoto,Kyoto,http://www.giwon-komori.com/
00000006,だんご庄  本店,Dangoshou,3.65,370,1000,1999,1000,1999,1000,999,1000,1999,wagashi,https://tabelog.com/nara/A2903/A290302/29000799/,https://tabelog.com/en/nara/A2903/A290302/29000799/,奈良県橿原市東坊城町860,34.4923725,135.7660047,奈良県,860 Higashibojocho Kashihara Nara,Nara,http://dango.kir.jp/
00000007,あぶり餅 本家 根元 かざりや,aburimochihonkenemotokazariya,3.73,1057,0,999,1000,1999,0,999,1000,999,wagashi,https://tabelog.com/kyoto/A2601/A260503/26001670/,https://tabelog.com/en/kyoto/A2601/A260503/26001670/,京都府京都市北区紫野今宮町96,35.045417,135.7425856,京都府,96 Murasakino Imamiyacho Kita-ku Kyoto,Kyoto,http://aquadina.com/kyoto/spot/6207/
00000008,中村藤吉本店 宇治本店,nakamuratoukichihonten,3.56,1231,1000,1999,2000,2999,2000,2999,1000,1999,wagashi,https://tabelog.com/kyoto/A2607/A260701/26000722/,https://tabelog.com/en/kyoto/A2607/A260701/26000722/,京都府宇治市宇治壱番10,34.8893421,135.8019252,京都府,Ichiban-10 Uji Kyoto,Kyoto,http://www.tokichi.jp
00000009,みよしや,Miyoshiya,3.65,269,1000,1999,0,999,1000,999,0,999,wagashi,https://tabelog.com/kyoto/A2601/A260301/26002185/,https://tabelog.com/en/kyoto/A2601/A260301/26002185/,京都府京都市東山区四条通大和大路西入ル廿一軒町226,35.0039465,135.7729725,京都府,226 Nijuikkencho Higashiyama Ward Kyoto,Kyoto,
00000010,お食事処 かさの家,Oshokujidokorokasanoya,3.62,884,0,999,0,999,0,999,0,999,wagashi,https://tabelog.com/fukuoka/A4003/A400301/40006129/,https://tabelog.com/en/fukuoka/A4003/A400301/40006129/,福岡県太宰府市宰府2-7-24,33.5194415,130.5333981,福岡県,Saifu Dazaifu Fukuoka,Fukuoka,http://www.kasanoya.com/
00000011,松葉屋,Matsubaya,3.62,186,1000,999,0,999,1000,1999,0,999,wagashi,https://tabelog.com/ishikawa/A1702/A170202/17005047/,https://tabelog.com/en/ishikawa/A1702/A170202/17005047/,石川県小松市大文字町69,36.40055419999999,136.4479872,石川県,69 Daimonjicho Komatsu Ishikawa,Ishikawa,http://www.matsubaya.jp/
00000012,庵月,Angetsu,3.66,143,2000,2999,2000,2999,1000,1999,2000,2999,wagashi,https://tabelog.com/osaka/A2701/A270201/27013829/,https://tabelog.com/en/osaka/A2701/A270201/27013829/,大阪府大阪市中央区東心斎橋2-8-29,34.6718159,135.502905,大阪府,2-chome-8-29 Higashishinsaibashi Chuo-ku Osaka,Osaka,https://angetsu.co.jp/
00000013,緑寿庵清水,Ryokujuanshimizu,3.73,447,1000,1999,2000,2999,1000,1999,1000,1999,wagashi,https://tabelog.com/kyoto/A2601/A260302/26005325/,https://tabelog.com/en/kyoto/A2601/A260302/26005325/,京都府京都市左京区吉田泉殿町38番地の2,35.0280716,135.7771483,京都府,38-2 Yoshidaizumidonocho Sakyo-ku Kyoto,Kyoto,http://www.konpeito.co.jp/
00000014,菊壽堂義信,kikujudouyoshinobu,3.65,214,1000,1999,2000,2999,1000,999,1000,1999,wagashi,https://tabelog.com/osaka/A2701/A270102/27014624/,https://tabelog.com/en/osaka/A2701/A270102/27014624/,大阪府大阪市中央区高麗橋2-3-1,34.689373,135.5047324,大阪府,2-chome-3-1 Koraibashi Chuo-ku Osaka,Osaka,
00000015,川端道喜,Kawabatadouki,3.95,205,3000,3999,2000,2999,4000,4999,1000,1999,wagashi,https://tabelog.com/kyoto/A2601/A260503/26001766/,https://tabelog.com/en/kyoto/A2601/A260503/26001766/,京都府京都市左京区下鴨南野々神町2-12,35.0512719,135.7703616,京都府,2-12 Shimogamo Minaminonokamicho Sakyo-ku Kyoto,Kyoto,
00000016,京都 くりや,Kyoutokuriya,3.64,129,3000,3999,2000,2999,3000,999,1000,1999,wagashi,https://tabelog.com/kyoto/A2601/A260202/26005379/,https://tabelog.com/en/kyoto/A2601/A260202/26005379/,京都府京都市中京区大文字町42-4,35.0172343,135.7532184,京都府,42-4 Daimonjicho Nakagyo Ward Kyoto,Kyoto,https://kyoto-kuriya.jp/
00000017,赤福 本店,Akafuku,3.60,3117,0,999,2000,2999,0,999,2000,999,wagashi,https://tabelog.com/mie/A2403/A240301/24000008/,https://tabelog.com/en/mie/A2403/A240301/24000008/,三重県伊勢市宇治中之切町26 おかげ横丁,34.4624294,136.7228539,三重県,26 Ujinakanokiricho Ise Mie,Mie,http://www.akafuku.co.jp/
00000018,三井寺力餅本家,Miiderachikaramochihonke,3.66,390,0,999,0,999,0,999,0,999,wagashi,https://tabelog.com/shiga/A2501/A250101/25003631/,https://tabelog.com/en/shiga/A2501/A250101/25003631/,滋賀県大津市浜大津2-1-30,35.0111403,135.862867,滋賀県,Hamaotsu Otsu Shiga,Shiga,https://www.tikaramoti.jp/
00000019,萬御菓子誂處 樫舎,yorozuonkashiatsuraedokorokashiya,3.85,690,1000,1999,0,999,1000,1999,0,999,wagashi,https://tabelog.com/nara/A2901/A290101/29002296/,https://tabelog.com/en/nara/A2901/A290101/29002296/,奈良県奈良市中院町22-3,34.6785722,135.8305643,奈良県,22-3 Chuincho Nara,Nara,http://www.kasiya.jp/
00000020,霧の森菓子工房 松山店,Kirinomorikashikoubou,3.64,421,0,999,0,999,0,999,0,999,wagashi,https://tabelog.com/ehime/A3801/A380101/38000209/,https://tabelog.com/en/ehime/A3801/A380101/38000209/,愛媛県松山市大街道3-3-1,33.8419897,132.770416,愛媛県,Okaido Matsuyama Ehime,Ehime,http://www.kirinomori.co.jp/
00000021,葵家やきもち総本舗,Aoiyayakimochisouhompo,3.62,297,0,999,0,999,0,999,0,999,wagashi,https://tabelog.com/kyoto/A2601/A260503/26001223/,https://tabelog.com/en/kyoto/A2601/A260503/26001223/,京都府京都市北区上賀茂本山339,35.0601005,135.7530703,京都府,339 Kamigamo Motoyama Kita-ku Kyoto,Kyoto,http://www.aoiya.jp/
00000022,すゞめ 金沢百番街店,Suzume,3.64,408,0,999,0,999,0,999,0,999,wagashi,https://tabelog.com/ishikawa/A1701/A170101/17006347/,https://tabelog.com/en/ishikawa/A1701/A170101/17006347/,石川県金沢市木ノ新保町1-1 金沢百番街 あんと,36.5778891,136.6476931,石川県,1-1 Kinoshinbomachi Kanazawa Ishikawa,Ishikawa,https://suzume.shop-pro.jp/
00000023,走井餅老舗,Hashiriimochirouho,3.62,256,1000,999,0,999,1000,1999,0,999,wagashi,https://tabelog.com/kyoto/A2607/A260702/26004256/,https://tabelog.com/en/kyoto/A2607/A260702/26004256/,京都府八幡市八幡高坊19,34.883658,135.7014744,京都府,Takabo-19 Yawata Kyoto,Kyoto,http://www.yawata-hashiriimochi.com/
00000024,御菓子司　高岡福信,Okashitsukasatakaokafukunobu,3.62,143,1000,999,1000,999,1000,999,1000,1999,wagashi,https://tabelog.com/osaka/A2701/A270102/27017423/,https://tabelog.com/en/osaka/A2701/A270102/27017423/,大阪府大阪市中央区道修町4-5-23,34.6891346,135.4986703,大阪府,4-chome-5-23 Doshomachi Chuo-ku Osaka,Osaka,
00000025,亀末廣,Kamesuehiro,3.72,252,1000,999,1000,999,1000,1999,1000,1999,wagashi,https://tabelog.com/kyoto/A2601/A260202/26000641/,https://tabelog.com/en/kyoto/A2601/A260202/26000641/,京都府京都市中京区姉小路車屋町東入ル車屋町251,35.0100327,135.7603359,京都府,Kyoto Nakagyo Ward 姉小路通烏丸東入車屋町,Kyoto,http://www.kyomeibutuhyakumikai.jp/shop/kamesuehiro.html
00000026,落雁諸江屋 西茶屋菓寮 味和以,Rakugammoroeyanishichayakaryouajiwai,3.60,145,1000,1999,1000,999,1000,999,1000,1999,wagashi,https://tabelog.com/ishikawa/A1701/A170101/17007462/,https://tabelog.com/en/ishikawa/A1701/A170101/17007462/,石川県金沢市野町2-26-1,36.5572647,136.6474653,石川県,2-chome-26-1 Nomachi Kanazawa Ishikawa,Ishikawa,http://moroeya.co.jp/archives/277
00000027,一和 一文字屋 和輔,ichiwaichimonjiyawasuke,3.72,741,0,999,1000,999,0,999,1000,999,wagashi,https://tabelog.com/kyoto/A2601/A260503/26001669/,https://tabelog.com/en/kyoto/A2601/A260503/26001669/,京都府京都市北区紫野今宮町69,35.0453407,135.7427883,京都府,69 Murasakino Imamiyacho Kita-ku Kyoto,Kyoto,
00000028,岩永 梅寿軒,Iwanagabaijuken,3.67,195,1000,999,1000,999,1000,1999,1000,999,wagashi,https://tabelog.com/nagasaki/A4201/A420101/42001419/,https://tabelog.com/en/nagasaki/A4201/A420101/42001419/,長崎県長崎市諏訪町7-1,32.7466208,129.881034,長崎県,7-1 Suwamachi Nagasaki,Nagasaki,http://www.baijyuken.com/
00000029,中谷堂,Nakatanidou,3.73,1348,0,999,0,999,0,999,0,999,wagashi,https://tabelog.com/nara/A2901/A290101/29000222/,https://tabelog.com/en/nara/A2901/A290101/29000222/,奈良県奈良市橋本町29,34.6819319,135.8289256,奈良県,29 Hashimotocho Nara,Nara,http://www.nakatanidou.jp
00000030,いと重菓舗 本店,Itojuukaho,3.64,196,1000,999,0,999,1000,1999,0,999,wagashi,https://tabelog.com/shiga/A2503/A250303/25001542/,https://tabelog.com/en/shiga/A2503/A250303/25001542/,滋賀県彦根市本町1-3-37,35.2711038,136.2530166,滋賀県,1-chome-3-37 Honmachi Hikone Shiga,Shiga,http://www.itojyu.com/
00000031,甘栗の老舗 林万昌堂 本店,Amagurinoshinisehayashimanshoudou,3.64,233,1000,999,0,999,1000,999,0,999,wagashi,https://tabelog.com/kyoto/A2601/A260201/26000796/,https://tabelog.com/en/kyoto/A2601/A260201/26000796/,京都府京都市下京区四条通寺町東入ル御旅宮本町3,35.0038389,135.7670012,京都府,Kyoto Shimogyo Ward 四条通寺町東入御旅宮本町1,Kyoto,http://www.hayashi-mansyodo.jp/
00000032,ぎおん徳屋,Giontokuya,3.87,1313,1000,1999,1000,1999,1000,1999,1000,1999,wagashi,https://tabelog.com/kyoto/A2601/A260301/26002075/,https://tabelog.com/en/kyoto/A2601/A260301/26002075/,京都府京都市東山区祇園町南側570-127,35.0026755,135.7751483,京都府,570-127 Gionmachi Minamigawa Higashiyama-ku Kyoto,Kyoto,http://gion-tokuya.jp/
00000033,本家月餅家直正,honketsukimochiyanaomasa,3.74,419,0,999,1000,1999,0,999,1000,999,wagashi,https://tabelog.com/kyoto/A2601/A260202/26002393/,https://tabelog.com/en/kyoto/A2601/A260202/26002393/,京都府京都市中京区木屋町通三条上ル上大阪町530,35.0094245,135.7707134,京都府,Kyoto Nakagyo Ward Kamiosakacho ５３０−１ 木屋町通り,Kyoto,
00000034,古の花,Konohana,3.60,187,1000,1999,1000,1999,1000,999,1000,999,wagashi,https://tabelog.com/kyoto/A2601/A260501/26004886/,https://tabelog.com/en/kyoto/A2601/A260501/26004886/,京都府京都市上京区御前通今小路上ル馬喰町898,35.0286292,135.7361276,京都府,Kyoto Kamigyo Ward 御前今小路上馬喰898,Kyoto,http://wa-konohana.jp/
00000035,亀屋良永,Kameyayoshinaga,3.63,99,1000,1999,1000,1999,2000,2999,1000,999,wagashi,https://tabelog.com/kyoto/A2601/A260201/26000644/,https://tabelog.com/en/kyoto/A2601/A260201/26000644/,京都府京都市中京区寺町通御池下ル本能寺前町504,35.0105875,135.7669176,京都府,Kyoto Nakagyo Ward Shimohonnojimaecho ５０４ 御池下ル 寺町通,Kyoto,https://www.kameyayoshinaga.jp/
00000036,和菓子店 青洋,wagashimiseseiyou,3.52,48,1000,1999,1000,1999,2000,2999,1000,999,wagashi,https://tabelog.com/kyoto/A2601/A260503/26022394/,https://tabelog.com/en/kyoto/A2601/A260503/26022394/,京都府京都市北区紫竹西野山町54-1,35.0499307,135.7410666,京都府,54-1 Shichiku Nishinoyamacho Kita-ku Kyoto,Kyoto,http://wagasiseiyou.com/
00000037,洛叉庵,Rakushaan,3.86,228,1000,1999,1000,1999,1000,999,1000,999,wagashi,https://tabelog.com/kyoto/A2601/A260503/26012788/,https://tabelog.com/en/kyoto/A2601/A260503/26012788/,京都府京都市北区紫竹下芝本町22,35.0495099,135.7496687,京都府,22 Shichiku Shimoshibamotocho Kita-ku Kyoto,Kyoto,
00000038,香梅堂,Koubaidou,3.63,313,1000,1999,1000,1999,1000,1999,1000,999,wagashi,https://tabelog.com/wakayama/A3005/A300501/30000289/,https://tabelog.com/en/wakayama/A3005/A300501/30000289/,和歌山県新宮市大橋通3-3-4,33.7293654,135.9868816,和歌山県,Ohashidori Shingu Wakayama,Wakayama,http://www.suzuyaki.jp/miso.html
00000039,粟玄,Awagen,3.64,225,1000,1999,1000,1999,1000,1999,1000,999,wagashi,https://tabelog.com/osaka/A2701/A270404/27038382/,https://tabelog.com/en/osaka/A2701/A270404/27038382/,大阪府大阪市住吉区上住吉1-2-3,34.610587,135.5004678,大阪府,Uesumiyoshi Sumiyoshi Ward Osaka,Osaka,http://awagen.jp/
00000040,宝泉 JR新幹線京都駅店,Housen,3.76,625,1000,999,1000,999,1000,1999,1000,1999,wagashi,https://tabelog.com/kyoto/A2601/A260101/26006790/,https://tabelog.com/en/kyoto/A2601/A260101/26006790/,京都府京都市下京区東塩小路高倉町8-3 新幹線 JR京都駅 2F,34.9847035,135.7600905,京都府,8-3 Higashishiokoji Takakuracho Shimogyo-ku Kyoto,Kyoto,http://www.housendo.com/
00000041,中村藤吉本店 京都駅店,nakamuratoukichihonten,3.56,1017,1000,1999,1000,1999,1000,1999,1000,1999,wagashi,https://tabelog.com/kyoto/A2601/A260101/26005903/,https://tabelog.com/en/kyoto/A2601/A260101/26005903/,京都府京都市下京区烏丸通塩小路下る東塩小路町 ジェイアール京都伊勢丹 JR西口改札前イートパラダイス 3F,34.9858662,135.7569981,京都府,京都府京都市下京区東塩小路町 烏丸通塩小路下る,Kyoto,https://www.tokichi.jp/
00000042,石谷もちや 富山中央通り本店,Ishitanimochiya,3.63,229,0,999,1000,1999,0,999,1000,999,wagashi,https://tabelog.com/toyama/A1601/A160101/16003881/,https://tabelog.com/en/toyama/A1601/A160101/16003881/,富山県富山市中央通り1-5-33,36.6892636,137.2172065,富山県,1-chome-5-33 Chuodori Toyama,Toyama,https://www.ishitani-mochiya.jp/
00000043,かん袋,Kambukuro,3.75,1049,0,999,1000,1999,0,999,1000,999,wagashi,https://tabelog.com/osaka/A2705/A270501/27001078/,https://tabelog.com/en/osaka/A2705/A270501/27001078/,大阪府堺市堺区新在家町東1-2-1,34.5718078,135.4687351,大阪府,1-chome-2-1 Shinzaikechohigashi Sakai-ku Sakai Osaka,Osaka,http://www.kanbukuro.co.jp/
00000044,甘泉堂,Kansendou,3.72,233,2000,999,1000,1999,2000,2999,1000,1999,wagashi,https://tabelog.com/kyoto/A2601/A260301/26001392/,https://tabelog.com/en/kyoto/A2601/A260301/26001392/,京都府京都市東山区祇園町344-6,35.0042467,135.7754296,京都府,344-6 Gionmachi Kitagawa Higashiyama-ku Kyoto,Kyoto,
00000045,美玉屋,Mitamaya,3.64,245,2000,999,1000,1999,1000,1999,1000,1999,wagashi,https://tabelog.com/kyoto/A2601/A260503/26002571/,https://tabelog.com/en/kyoto/A2601/A260503/26002571/,京都府京都市左京区下鴨高木町西入ル下鴨東本町18-1,35.0441301,135.7762409,京都府,18-1 Shimogamo Higashihonmachi Sakyo Ward Kyoto,Kyoto,http://nttbj.itp.ne.jp/0757218740/index.html
00000046,五十鈴茶屋 本店,Isuzuchaya,3.63,326,2000,999,1000,1999,1000,1999,1000,1999,wagashi,https://tabelog.com/mie/A2403/A240301/24000873/,https://tabelog.com/en/mie/A2403/A240301/24000873/,三重県伊勢市宇治中之切町30,34.4627776,136.7235621,三重県,30 Ujinakanokiricho Ise Mie,Mie,http://www.isuzuchaya.com/
00000047,玉製家,Gyokuseiya,3.85,846,2000,2999,1000,1999,1000,1999,1000,999,wagashi,https://tabelog.com/osaka/A2701/A270202/27001576/,https://tabelog.com/en/osaka/A2701/A270202/27001576/,大阪府大阪市中央区千日前1-4-4,34.66736300000001,135.5051053,大阪府,Sennichimae Chuo Ward Osaka,Osaka,
00000048,松竹堂 吹田山田本店,Shouchikudou,3.68,378,2000,2999,1000,1999,1000,1999,1000,999,wagashi,https://tabelog.com/osaka/A2706/A270602/27003885/,https://tabelog.com/en/osaka/A2706/A270602/27003885/,大阪府吹田市山田東2-36-2,34.7988064,135.5289378,大阪府,2-chome-36-2 Yamadahigashi Suita Osaka,Osaka,https://www.fruitmoti-shoutikudou.jp
00000049,梅園 河原町店,Umezono,3.62,444,0,999,0,999,0,999,0,999,wagashi,https://tabelog.com/kyoto/A2601/A260202/26001860/,https://tabelog.com/en/kyoto/A2601/A260202/26001860/,京都府京都市中京区河原町三条下る山崎町234-4,35.0075484,135.7692691,京都府,234-4 Yamazakicho Nakagyo Ward Kyoto,Kyoto,http://umezono-kyoto.com/
00000050,御菓子司 聚洸,onkashitsukasajukou,3.69,120,1000,999,0,999,1000,1999,0,999,wagashi,https://tabelog.com/kyoto/A2601/A260503/26005468/,https://tabelog.com/en/kyoto/A2601/A260503/26005468/,京都府京都市上京区筋違橋町548-4,35.0369215,135.7487577,京都府,548 Sujikaibashicho Kamigyo Ward Kyoto,Kyoto,http://aquadina.com/kyoto/spot/6302/
00000051,阿闍梨餅本舗 京菓子司 満月 本店,ajarimochihompokyougashitsukasamangetsu,3.76,926,0,999,0,999,0,999,0,999,wagashi,https://tabelog.com/kyoto/A2601/A260302/26003917/,https://tabelog.com/en/kyoto/A2601/A260302/26003917/,京都府京都市左京区鞠小路通今出川上ル,35.02879770000001,135.7774813,京都府,139 Tanaka Oicho Sakyo Ward Kyoto,Kyoto,http://www.ajyarimochi.com/
00000052,角屋,Kadoya,3.61,322,0,999,0,999,0,999,0,999,wagashi,https://tabelog.com/osaka/A2701/A270304/27002992/,https://tabelog.com/en/osaka/A2701/A270304/27002992/,大阪府大阪市旭区森小路2-8-22,34.7235161,135.5507642,大阪府,Morishoji Asahi Ward Osaka,Osaka,
00000053,大阪浪花家,Oosakananiwaya,3.72,761,0,999,0,999,0,999,0,999,wagashi,https://tabelog.com/osaka/A2701/A270101/27069919/,https://tabelog.com/en/osaka/A2701/A270101/27069919/,大阪府大阪市北区中崎1-9-21 平和ビル 1Ｆ,34.7075192,135.5072044,大阪府,1-chome-9-21 Nakazaki Kita-ku Osaka,Osaka,
00000054,京菓子司 松寿軒,kyougashitsukasashoujuken,3.80,193,0,999,1000,1999,0,999,1000,1999,wagashi,https://tabelog.com/kyoto/A2601/A260301/26009387/,https://tabelog.com/en/kyoto/A2601/A260301/26009387/,京都府京都市東山区松原通大和大路西入弓矢町19-12,34.998759,135.7714448,京都府,Kyoto Higashiyama Ward 大和大路西入弓矢町19-12,Kyoto,
00000055,大極殿本舗 本店,Daigokudenhompo,3.63,248,1000,999,1000,1999,1000,1999,1000,1999,wagashi,https://tabelog.com/kyoto/A2601/A260201/26005531/,https://tabelog.com/en/kyoto/A2601/A260201/26005531/,京都府京都市中京区高倉通四条上ル帯屋町590,35.0041996,135.7627901,京都府,Kyoto Nakagyo Ward 高倉通四条上る帯屋町５９０,Kyoto,
00000056,神馬堂,Jimbadou,3.68,236,1000,999,1000,1999,1000,999,1000,1999,wagashi,https://tabelog.com/kyoto/A2601/A260503/26000370/,https://tabelog.com/en/kyoto/A2601/A260503/26000370/,京都府京都市北区上賀茂御薗口町4,35.0578311,135.7514184,京都府,4 Kamigamo Misonoguchicho Kita-ku Kyoto,Kyoto,http://aquadina.com/kyoto/spot/300/
00000057,出入橋きんつば屋,Deiribashikintsubaya,3.69,420,1000,999,1000,1999,1000,999,1000,1999,wagashi,https://tabelog.com/osaka/A2701/A270108/27003802/,https://tabelog.com/en/osaka/A2701/A270108/27003802/,大阪府大阪市北区堂島3-4-10,34.6969385,135.4915828,大阪府,3-chome-4-10 Dojima Kita-ku Osaka,Osaka,
00000058,宝泉堂 本店,Housendou,3.63,98,1000,999,1000,1999,1000,999,1000,1999,wagashi,https://tabelog.com/kyoto/A2601/A260503/26005834/,https://tabelog.com/en/kyoto/A2601/A260503/26005834/,京都府京都市左京区下鴨膳部町21,35.0429425,135.772204,京都府,21 Shimogamo Kashiwabecho Sakyo-ku Kyoto,Kyoto,http://www.housendo.com/
00000059,さるや,Saruya,3.59,274,1000,999,1000,1999,1000,999,1000,1999,wagashi,https://tabelog.com/kyoto/A2601/A260302/26018649/,https://tabelog.com/en/kyoto/A2601/A260302/26018649/,京都府京都市左京区下鴨泉川町59 下鴨神社境内,35.0389778,135.7730068,京都府,59 Shimogamo Izumikawacho Sakyo-ku Kyoto,Kyoto,http://aquadina.com/kyoto/spot/206/
00000060,かさぎ屋,Kasagiya,3.60,210,1000,999,1000,1999,1000,999,1000,999,wagashi,https://tabelog.com/kyoto/A2601/A260301/26000596/,https://tabelog.com/en/kyoto/A2601/A260301/26000596/,京都府京都市東山区桝屋町349,34.9983065,135.7807541,京都府,349 Masuyacho Higashiyama-ku Kyoto,Kyoto,http://www.2nenzaka.ne.jp/article/28
00000061,本家小嶋,Honkekojima,3.63,157,1000,999,1000,1999,1000,999,1000,999,wagashi,https://tabelog.com/osaka/A2705/A270501/27013627/,https://tabelog.com/en/osaka/A2705/A270501/27013627/,大阪府堺市堺区大町西1-2-21,34.5770189,135.4714674,大阪府,Ochonishi Sakai Ward Sakai Osaka,Osaka,https://www.honkekojima.com/
00000062,寶菓匠 菅屋 山本店,Takarakashousugaya,3.64,139,1000,999,1000,1999,1000,999,1000,999,wagashi,https://tabelog.com/hyogo/A2803/A280303/28006526/,https://tabelog.com/en/hyogo/A2803/A280303/28006526/,兵庫県宝塚市山本東3-9-4,34.8207958,135.3889705,兵庫県,3-chome-9-4 Yamamotohigashi Takarazuka Hyogo,Hyogo,https://sugaya-web.com/
00000063,森乃お菓子,Morinookashi,3.64,256,1000,999,1000,1999,1000,999,1000,1999,wagashi,https://tabelog.com/osaka/A2701/A270101/27076922/,https://tabelog.com/en/osaka/A2701/A270101/27076922/,大阪府大阪市北区曽根崎新地1-1-43 第2大川ビル 1F,34.6982594,135.4988228,大阪府,Hanshin Expressway No.1 Loop Rte Kita-ku Osaka,Osaka,https://morinookasi.jimdofree.com/
00000064,紅葉堂弐番屋,Momijidounibanya,3.59,440,0,999,0,999,0,999,0,999,wagashi,https://tabelog.com/hiroshima/A3402/A340202/34001086/,https://tabelog.com/en/hiroshima/A3402/A340202/34001086/,広島県廿日市市宮島町512-2,34.2732114,132.3052488,広島県,Miyajimacho Hatsukaichi Hiroshima,Hiroshima,http://www.momijido.com
00000065,夢菓房たから,Yumekaboutakara,3.69,460,0,999,0,999,0,999,0,999,wagashi,https://tabelog.com/kagawa/A3701/A370101/37003380/,https://tabelog.com/en/kagawa/A3701/A370101/37003380/,香川県高松市春日町214,34.3185404,134.0916859,香川県,214 Kasugacho Takamatsu Kagawa,Kagawa,http://e-takara.jp/
00000066,紅葉堂 本店,Momijidou,3.63,845,0,999,0,999,0,999,0,999,wagashi,https://tabelog.com/hiroshima/A3402/A340202/34010095/,https://tabelog.com/en/hiroshima/A3402/A340202/34010095/,広島県廿日市市宮島町448-1,34.2975691,132.3209573,広島県,448-1 Miyajimacho Hatsukaichi-shi Hiroshima,Hiroshima,http://www.momijido.com
00000067,大極殿本舗 六角店,daigokudenhompo,3.76,796,1000,999,1000,1999,1000,1999,1000,999,wagashi,https://tabelog.com/kyoto/A2601/A260202/26004652/,https://tabelog.com/en/kyoto/A2601/A260202/26004652/,京都府京都市中京区六角通高倉東入ル南側堀之上町120,35.007218,135.7630396,京都府,Kyoto Nakagyo Ward 高倉東入ル南側,Kyoto,
00000068,亀屋良長 本店,Kameyayoshinaga,3.62,285,1000,999,1000,1999,1000,1999,1000,1999,wagashi,https://tabelog.com/kyoto/A2601/A260203/26000331/,https://tabelog.com/en/kyoto/A2601/A260203/26000331/,京都府京都市下京区四条通油小路西入柏屋町17-19,35.0038342,135.7529822,京都府,Kyoto Shimogyo Ward Shijo Dori 油小路西入柏屋町17-19,Kyoto,https://kameya-yoshinaga.com/
00000069,本家船はしや,Honkefunahashiya,3.60,115,1000,999,1000,1999,1000,999,1000,1999,wagashi,https://tabelog.com/kyoto/A2601/A260301/26005884/,https://tabelog.com/en/kyoto/A2601/A260301/26005884/,京都府京都市中京区三条大橋西詰112,35.0090538,135.7718123,京都府,Kyoto Nakagyo Ward Nakajimacho １１２ 河原町東入ル 三条通,Kyoto,http://www.funahashiya.com/
00000070,麩嘉 府庁前本店,Fuuka,3.71,288,1000,999,1000,1999,1000,999,1000,1999,wagashi,https://tabelog.com/kyoto/A2601/A260202/26001531/,https://tabelog.com/en/kyoto/A2601/A260202/26001531/,京都府京都市上京区西洞院堪木町上ル東裏辻町413,35.0188803,135.7548785,京都府,Kyoto Kamigyo Ward Higashiuratsujicho ４１３ 京都府京都市上京区西洞院通椹木町上る,Kyoto,http://aquadina.com/kyoto/spot/5500/
00000071,嶋屋 本店,Shimaya,3.65,335,1000,999,1000,1999,1000,999,1000,999,wagashi,https://tabelog.com/osaka/A2701/A270203/27002721/,https://tabelog.com/en/osaka/A2701/A270203/27002721/,大阪府大阪市阿倍野区阿倍野筋2-4-37,34.6428971,135.5126368,大阪府,Abenosuji Abeno Ward Osaka,Osaka,http://simaya.com/
00000072,森のおはぎ,Morinoohagi,3.62,242,1000,999,1000,1999,1000,999,1000,999,wagashi,https://tabelog.com/osaka/A2706/A270601/27051361/,https://tabelog.com/en/osaka/A2706/A270601/27051361/,大阪府豊中市中桜塚2-25-10,34.780121,135.4688279,大阪府,2-chome-25-10 Nakasakurazuka Toyonaka Osaka,Osaka,https://morinoohagi.jimdofree.com/
00000073,松屋常盤,Matsuyatokiwa,3.65,119,0,999,1000,1999,0,999,1000,999,wagashi,https://tabelog.com/kyoto/A2601/A260202/26000620/,https://tabelog.com/en/kyoto/A2601/A260202/26000620/,京都府京都市中京区堺町通丸太町下ル橘町83,35.01662779999999,135.7629801,京都府,83 Tachibanacho Nakagyo-ku Kyoto,Kyoto,http://aquadina.com/kyoto/spot/5501/
00000074,無碍山房 サロン・ド・ムゲ,Mugesambousarondomuge,3.65,384,1000,1999,1000,1999,1000,1999,1000,1999,wagashi,https://tabelog.com/kyoto/A2601/A260301/26028853/,https://tabelog.com/en/kyoto/A2601/A260301/26028853/,京都府京都市東山区下河原町通高台寺北門前鷲尾町524,35.0018303,135.7808179,京都府,524 Washiocho Kyoto,Kyoto,http://kikunoi.jp/kikunoiweb/Muge/
00000075,梅香堂,Baikoudou,3.60,244,1000,999,1000,1999,1000,1999,1000,999,wagashi,https://tabelog.com/kyoto/A2601/A260304/26001616/,https://tabelog.com/en/kyoto/A2601/A260304/26001616/,京都府京都市東山区今熊野宝蔵町6,34.9854743,135.774287,京都府,6 Imakumano Hozocho Higashiyama-ku Kyoto,Kyoto,
00000076,餅匠しづく 新町店,Mochishoushiduku,3.74,789,1000,1999,1000,1999,1000,1999,1000,999,wagashi,https://tabelog.com/osaka/A2701/A270201/27024632/,https://tabelog.com/en/osaka/A2701/A270201/27024632/,大阪府大阪市西区新町1-17-17 新町ハウス 1F,34.6777081,135.4943533,大阪府,1-chome-17-17 Shinmachi Nishi-ku Osaka,Osaka,https://mochi-shizuku.jp/
00000077,本煉果子 炊蓮 isshin,honnerikuwashisuirenisshin,3.65,210,1000,1999,1000,1999,1000,1999,1000,999,wagashi,https://tabelog.com/osaka/A2701/A270106/27061962/,https://tabelog.com/en/osaka/A2701/A270106/27061962/,大阪府大阪市中央区北久宝寺町1-2-14 トチノビル 1F,34.6800971,135.5095246,大阪府,1-chome-2-14 Kitakyuhojimachi Chuo-ku Osaka,Osaka,
00000078,つぼみ,Tsubomi,3.63,466,1000,1999,1000,1999,1000,1999,1000,999,wagashi,https://tabelog.com/ishikawa/A1701/A170101/17000008/,https://tabelog.com/en/ishikawa/A1701/A170101/17000008/,石川県金沢市柿木畠3-1,36.5603713,136.6565153,石川県,3-1 Kakinokibatake Kanazawa Ishikawa,Ishikawa,http://tsubomi-kanazawa.jp/
00000079,二條若狭屋 寺町店,Nijouwakasaya,3.71,353,1000,1999,1000,1999,1000,1999,1000,1999,wagashi,https://tabelog.com/kyoto/A2601/A260201/26022589/,https://tabelog.com/en/kyoto/A2601/A260201/26022589/,京都府京都市中京区寺町通二条下ル榎木町67,35.0135087,135.7674412,京都府,67 Enokicho Nakagyo-ku Kyoto,Kyoto,http://www.kyogashi.info/
00000080,うめぞの カフェアンドギャラリー,Umezonokafeandogyarari,3.67,402,1000,1999,1000,1999,1000,1999,1000,999,wagashi,https://tabelog.com/kyoto/A2601/A260201/26016445/,https://tabelog.com/en/kyoto/A2601/A260201/26016445/,京都府京都市中京区不動町180,35.0060713,135.7560042,京都府,180 Fudocho Nakagyo-ku Kyoto,Kyoto,http://umezono-kyoto.com/cafe/
00000081,京阪宇治駅前 駿河屋,Keihanujiekimaesurugaya,3.60,153,1000,1999,1000,1999,1000,999,1000,999,wagashi,https://tabelog.com/kyoto/A2607/A260701/26004992/,https://tabelog.com/en/kyoto/A2607/A260701/26004992/,京都府宇治市宇治東内16,34.8933857,135.8074608,京都府,Higashiuchi-16 Uji Kyoto,Kyoto,http://www.chadango.jp/
00000082,加茂みたらし茶屋,Kamomitarashichaya,3.71,970,1000,999,1000,1999,1000,1999,1000,999,wagashi,https://tabelog.com/kyoto/A2601/A260503/26001758/,https://tabelog.com/en/kyoto/A2601/A260503/26001758/,京都府京都市左京区下鴨松ノ木町53,35.0396522,135.7707411,京都府,53 Shimogamo Matsunokicho Sakyo-ku Kyoto,Kyoto,
00000083,匠寛堂,Shoukandou,3.62,226,1000,999,1000,1999,1000,999,1000,1999,wagashi,https://tabelog.com/nagasaki/A4201/A420101/42000051/,https://tabelog.com/en/nagasaki/A4201/A420101/42000051/,長崎県長崎市魚の町7-24,32.7474526,129.8799091,長崎県,7-24 Uonomachi Nagasaki,Nagasaki,http://www.shokando.jp/
00000084,一乗寺中谷,Ichijoujinakatani,3.63,447,1000,999,1000,1999,1000,1999,1000,999,wagashi,https://tabelog.com/kyoto/A2601/A260303/26000491/,https://tabelog.com/en/kyoto/A2601/A260303/26000491/,京都府京都市左京区一乗寺花ノ木町5,35.0436618,135.7924847,京都府,5 Ichijoji Hananokicho Sakyo-ku Kyoto,Kyoto,http://ichijouji-nakatani.com/
00000085,亀廣永,Kamehironaga,3.65,123,1000,1999,1000,1999,1000,1999,1000,999,wagashi,https://tabelog.com/kyoto/A2601/A260202/26004744/,https://tabelog.com/en/kyoto/A2601/A260202/26004744/,京都府京都市中京区高倉通蛸薬師上ル和久屋町359,35.0063746,135.7625123,京都府,Kyoto Nakagyo Ward 高倉通り 蛸薬師上ル和久屋町359,Kyoto,
00000086,嘯月,Shogetsu,3.95,598,1000,1999,2000,2999,3000,3999,2000,2999,wagashi,https://tabelog.com/kyoto/A2601/A260503/26001672/,https://tabelog.com/en/kyoto/A2601/A260503/26001672/,京都府京都市北区紫野上柳町6,35.044407,135.7526516,京都府,6 Murasakino Kamiyanagicho Kita-ku Kyoto,Kyoto,
00000087,御菓子司 中村軒,onkashitsukasanakamuraken,3.76,800,1000,1999,2000,2999,1000,999,1000,1999,wagashi,https://tabelog.com/kyoto/A2601/A260401/26001883/,https://tabelog.com/en/kyoto/A2601/A260401/26001883/,京都府京都市西京区桂浅原町61,34.9828228,135.7116284,京都府,61 Katsuraasaharacho Nishikyo-ku Kyoto,Kyoto,https://www.nakamuraken.co.jp/
00000088,蜂蜜まん本舗,Hachimitsumanhompo,3.59,307,1000,1999,2000,2999,1000,999,2000,999,wagashi,https://tabelog.com/mie/A2401/A240101/24000499/,https://tabelog.com/en/mie/A2401/A240101/24000499/,三重県津市大門8-5,34.7192069,136.5110294,三重県,8-5 Daimon Tsu Mie,Mie,
00000089,茶寮 宝泉,Saryo Hosen,3.91,1358,1000,1999,2000,2999,1000,1999,1000,1999,wagashi,https://tabelog.com/kyoto/A2601/A260503/26001872/,https://tabelog.com/en/kyoto/A2601/A260503/26001872/,京都府京都市左京区下鴨西高木町25,35.0432209,135.7741513,京都府,25 Shimogamo Nishitakagicho Sakyo-ku Kyoto,Kyoto,http://www.housendo.com
00000090,御菓子司 塩芳軒,onkashitsukasashioyoshiken,3.83,335,1000,1999,2000,2999,1000,1999,1000,1999,wagashi,https://tabelog.com/kyoto/A2601/A260202/26005963/,https://tabelog.com/en/kyoto/A2601/A260202/26005963/,京都府京都市上京区黒門通中立売上ル飛騨殿町180,35.0228187,135.7498387,京都府,Kyoto Kamigyo Ward 黒門通中立 売上ル飛騨殿町180,Kyoto,https://www.kyogashi.com/
00000091,鍵善良房 四条本店,Kagizenyoshifusa,3.77,1212,1000,1999,1000,1999,1000,1999,1000,1999,wagashi,https://tabelog.com/kyoto/A2601/A260301/26001887/,https://tabelog.com/en/kyoto/A2601/A260301/26001887/,京都府京都市東山区祇園町北側264,35.0040823,135.7747502,京都府,264 Gionmachi Kitagawa Higashiyama-ku Kyoto,Kyoto,http://www.kagizen.co.jp/
00000092,いなりふたば,inarifutaba,3.62,192,1000,1999,1000,1999,1000,999,1000,999,wagashi,https://tabelog.com/kyoto/A2601/A260601/26007559/,https://tabelog.com/en/kyoto/A2601/A260601/26007559/,京都府京都市伏見区深草稲荷仲之町55,34.964499,135.770821,京都府,55 Fukakusa Inari Nakanocho Fushimi Ward Kyoto,Kyoto,http://aquadina.com/kyoto/spot/6743/
00000093,御倉屋,Mikuraya,3.62,72,1000,1999,1000,1999,1000,1999,1000,999,wagashi,https://tabelog.com/kyoto/A2601/A260503/26000978/,https://tabelog.com/en/kyoto/A2601/A260503/26000978/,京都府京都市北区紫竹北大門町78,35.0526995,135.7450562,京都府,78 Shichiku Kitadaimoncho Kita-ku Kyoto,Kyoto,http://mikuraya.jp/
00000094,出町ふたば,Demachifutaba,3.79,2645,0,999,0,999,0,999,0,999,wagashi,https://tabelog.com/kyoto/A2601/A260302/26001520/,https://tabelog.com/en/kyoto/A2601/A260302/26001520/,京都府京都市上京区出町通今出川上ル青龍町236,35.0300999,135.7696183,京都府,Kyoto Kamigyo Ward 出町 今出川上ル青龍町236,Kyoto,
00000095,満月 JR京都伊勢丹店,Mangetsu,3.67,294,0,999,0,999,0,999,0,999,wagashi,https://tabelog.com/kyoto/A2601/A260101/26014448/,https://tabelog.com/en/kyoto/A2601/A260101/26014448/,京都府京都市下京区烏丸通塩小路下る東塩小路町901 ジェイアール京都伊勢丹 B1F,34.9858662,135.7569981,京都府,901 Higashishiokojicho Shimogyo-ku Kyoto,Kyoto,http://www.ajyarimochi.com/
00000096,八百源来弘堂,Yaogenraikoudou,3.61,120,0,999,0,999,0,999,0,999,wagashi,https://tabelog.com/osaka/A2705/A270501/27012513/,https://tabelog.com/en/osaka/A2705/A270501/27012513/,大阪府堺市堺区車之町東2丁1-11,34.5816328,135.4784047,大阪府,2-chome-1-11 Kurumanochohigashi Sakai-ku Sakai Osaka,Osaka,http://www.yaogen.com/
00000097,甘納豆かわむら,Amanattoukawamura,3.73,668,2000,999,0,999,2000,2999,0,999,wagashi,https://tabelog.com/ishikawa/A1701/A170101/17000514/,https://tabelog.com/en/ishikawa/A1701/A170101/17000514/,石川県金沢市野町2-24-7,36.5566904,136.6470693,石川県,2-chome-24-7 Nomachi Kanazawa Ishikawa,Ishikawa,https://mame-kawamura.com
00000098,茶房いせはん,sabouisehan,3.73,566,1000,1999,0,999,1000,1999,0,999,wagashi,https://tabelog.com/kyoto/A2601/A260302/26001023/,https://tabelog.com/en/kyoto/A2601/A260302/26001023/,京都府京都市上京区青龍町242,35.0298786,135.7701621,京都府,242 Seiryucho Kamigyo-ku Kyoto,Kyoto,http://isehan-kyoto.com/
00000099,甘味処 あかちゃ家,Kammidokoroakachaya,3.60,177,1000,1999,0,999,1000,999,0,999,wagashi,https://tabelog.com/hyogo/A2801/A280103/28002294/,https://tabelog.com/en/hyogo/A2801/A280103/28002294/,兵庫県神戸市灘区水道筋5-3-23,34.7122856,135.2218504,兵庫県,5-chome-3-23 Suidosuji Nada-ku Kobe Hyogo,Hyogo,http://akachaya.jp/
00000100,みつばち,Mitsubachi,3.71,384,1000,1999,0,999,1000,999,0,999,wagashi,https://tabelog.com/kyoto/A2601/A260302/26002128/,https://tabelog.com/en/kyoto/A2601/A260302/26002128/,京都府京都市上京区河原町今出川下ル梶井町448-60,35.0280298,135.7696765,京都府,Kyoto Kamigyo Ward 河原町通今出川下る梶井町448−60,Kyoto,
